SiteNumber;SiteName;Latitude;Longitude;SiteNumber2
01010070;Big Black River near Depot Mtn, Maine;46.89388889;-69.7516667;USGS01010070
01010500;St. John River at Dickey, Maine;47.11305556;-69.0880556;USGS01010500
01011000;Allagash River near Allagash, Maine;47.0697222;-69.0794444;USGS01011000
01011500;St. Francis River near Connors, New Brunswick;47.20697926;-68.9564281;USGS01011500
01013500;Fish River near Fort Kent, Maine;47.2375;-68.58277778;USGS01013500
01014000;St. John River below Fish R, nr Fort Kent, Maine;47.2833333;-68.58527778;USGS01014000
01015800;Aroostook River near Masardis, Maine;46.52305556;-68.3716667;USGS01015800
01017000;Aroostook River at Washburn, Maine;46.7772222;-68.1572222;USGS01017000
01017060;Hardwood Brook below Glidden Brk nr Caribou, Maine;46.7836111;-67.9891667;USGS01017060
01017290;Little Madawaska River at Caribou, Maine;46.8886111;-67.945;USGS01017290
01017550;Williams Brook at Phair, Maine;46.62805556;-67.9530556;USGS01017550
01017960;Meduxnekeag R above S Br Medux. R nr Houlton, ME;46.105;-67.88138889;USGS01017960
01018000;Meduxnekeag River near Houlton, Maine;46.105;-67.8666667;USGS01018000
01018009;Pearce Brook at Route 1 at Houlton, Maine;46.11527778;-67.84027778;USGS01018009
01018035;Meduxnekeag River at Lowery Rd. nr Houlton, Maine;46.1811111;-67.80388889;USGS01018035
01018500;St. Croix River at Vanceboro, Maine;45.5683333;-67.4283333;USGS01018500
01018900;West Grand Lake at Grand Lake Stream, Maine;45.1811111;-67.7780556;USGS01018900
01019000;Grand Lake Stream at Grand Lake Stream, Maine;45.1725;-67.76888889;USGS01019000
01019300;Lewy Lake at Princeton, Maine;45.2256833;-67.57705278;USGS01019300
01021000;St. Croix River at Baring, Maine;45.1369444;-67.3180556;USGS01021000
01021050;St. Croix River at Milltown, Maine;45.17;-67.2966667;USGS01021050
01021470;Libby Brook near Northfield, Maine;44.8008333;-67.725;USGS01021470
01021480;Old Stream near Wesley, Maine;44.9369444;-67.7361111;USGS01021480
01022294;East Br Bear Brook near Beddington, Maine;44.85909167;-68.10396389;USGS01022294
01022500;Narraguagus River at Cherryfield, Maine;44.60805556;-67.93527778;USGS01022500
01022840;Otter Creek near Bar Harbor, Maine;44.33277778;-68.2066667;USGS01022840
01027200;North Branch Penobscot River nr Pittston Farm, ME;45.93527778;-69.9936111;USGS01027200
01029200;Seboeis River near Shin Pond, Maine;46.14305556;-68.6336111;USGS01029200
01029500;East Branch Penobscot River at Grindstone, Maine;45.73027778;-68.5894444;USGS01029500
01030350;Wytopitlock Stream near Wytopitlock Maine;45.7086111;-68.1580556;USGS01030350
01030500;Mattawamkeag River near Mattawamkeag, Maine;45.5011111;-68.3058333;USGS01030500
01031300;Piscataquis River at Blanchard, Maine;45.2672222;-69.58388889;USGS01031300
01031450;Kingsbury Stream at Abbot Village, Maine;45.1844444;-69.4522222;USGS01031450
01031500;Piscataquis River near Dover-Foxcroft, Maine;45.175;-69.3147222;USGS01031500
01031510;Black Stream near Dover-Foxcroft, Maine;45.15027778;-69.23638889;USGS01031510
01034000;Piscataquis River at Medford, Maine;45.26055556;-68.8686111;USGS01034000
01034500;Penobscot River at West Enfield, Maine;45.2361111;-68.65138889;USGS01034500
01036390;Penobscot River at Eddington, Maine;44.82666667;-68.6966667;USGS01036390
01037000;Kenduskeag Stream near Bangor, Maine;44.8611111;-68.8316667;USGS01037000
01037050;Penobscot River at Bangor, Maine;44.79638889;-68.76777778;USGS01037050
01037380;Ducktrap River near Lincolnville, Maine;44.32916667;-69.0608333;USGS01037380
01038000;Sheepscot River at North Whitefield, Maine;44.22277778;-69.59388889;USGS01038000
01042500;Kennebec River at The Forks, Maine;45.3397222;-69.9619444;USGS01042500
01043500;Dead River near Dead River, Maine;45.22905;-70.20112778;USGS01043500
01044550;Spencer Stream near Grand Falls, Maine;45.3136111;-70.2416667;USGS01044550
01046000;Austin Stream at Bingham, Maine;45.0644444;-69.8805556;USGS01046000
01046500;Kennebec River at Bingham, Maine;45.0519444;-69.8855556;USGS01046500
01047000;Carrabassett River near North Anson, Maine;44.86916667;-69.955;USGS01047000
01047150;Kennebec River near Madison, Maine;44.77888889;-69.8869444;USGS01047150
01047200;Sandy River near Madrid, Maine;44.85777778;-70.48527778;USGS01047200
01048000;Sandy River near Mercer, Maine;44.70805556;-69.9375;USGS01048000
01048220;East Branch Wesserunsett Stream near Athens, Maine;44.9475;-69.6569444;USGS01048220
01049265;Kennebec River at North Sidney, Maine;44.4722222;-69.68388889;USGS01049265
01049320;Kennebec River at Calumet Bridge at Augusta, Maine;44.3186111;-69.7716667;USGS01049320
01049500;Cobbosseecontee Stream at Gardiner, Maine;44.22916667;-69.7780556;USGS01049500
01049505;Kennebec River at Gardiner, Maine;44.23027778;-69.7694444;USGS01049505
01051620;Umbagog Lake at Birch Camp, at Magalloway Plt, ME;44.80555556;-71.0108333;USGS01051620
01052500;Diamond River near Wentworth Location, NH;44.8775;-71.0575;USGS01052500
01053500;Androscoggin River at Errol, NH;44.7825;-71.1286111;USGS01053500
01053600;Androscoggin River below Bog Brook at Cambridge NH;44.6661111;-71.18138889;USGS01053600
01054000;Androscoggin River near Gorham, NH;44.4358333;-71.19027778;USGS01054000
01054114;Peabody River at Gorham, New Hampshire;44.38131944;-71.1706556;USGS01054114
01054200;Wild River at Gilead, Maine;44.39055556;-70.9797222;USGS01054200
01054300;Ellis River at South Andover, Maine;44.5933333;-70.7330556;USGS01054300
01054500;Androscoggin River at Rumford, Maine;44.5519444;-70.5441667;USGS01054500
01055000;Swift River near Roxbury, Maine;44.64277778;-70.58888889;USGS01055000
01055220;Dead River at Leeds, Maine;44.31805556;-70.1222222;USGS01055220
01055500;Nezinscot River at Turner Center, Maine;44.26944444;-70.2297222;USGS01055500
01057000;Little Androscoggin River near South Paris, Maine;44.30388889;-70.5397222;USGS01057000
01059000;Androscoggin River near Auburn, Maine;44.0722222;-70.2080556;USGS01059000
01063310;Stony Brook at East Sebago, Maine;43.85555556;-70.6397222;USGS01063310
01063995;Sebago Lake near North Windham, Maine;43.77777778;-70.5061111;USGS01063995
01064118;Presumpscot River at Westbrook, Maine;43.68694444;-70.3472222;USGS01064118
010642505;SACO RIVER AT RIVER STREET, AT BARTLETT, NH;44.0836111;-71.285;USGS010642505
01064500;Saco River near Conway, NH;43.9908333;-71.0905556;USGS01064500
01064801;BEARCAMP RIVER AT SOUTH TAMWORTH, NH;43.83007396;-71.2878488;USGS01064801
01066000;Saco River at Cornish, Maine;43.80805556;-70.7816667;USGS01066000
01067950;Kennebunk River near Kennebunk, Maine;43.4322222;-70.5533333;USGS01067950
01068910;Mousam River at Route 4 near Sanford, Maine;43.4183333;-70.7380556;USGS01068910
01069500;Mousam River near West Kennebunk, Maine;43.4183333;-70.6583333;USGS01069500
01069700;Branch Brook near Kennebunk, Maine;43.37916667;-70.5833333;USGS01069700
01072800;COCHECO RIVER NEAR ROCHESTER, NH.;43.26841527;-70.9736739;USGS01072800
01072870;ISINGLASS R AT ROCHESTER NECK RD, NR DOVER, NH;43.23480487;-70.9564507;USGS01072870
01073000;OYSTER RIVER NEAR DURHAM, NH;43.1486955;-70.9650603;USGS01073000
01073319;LAMPREY RIVER AT LANGFORD ROAD, AT RAYMOND, NH;43.04138889;-71.2016667;USGS01073319
01073500;LAMPREY RIVER NEAR NEWMARKET, NH;43.10258558;-70.952559;USGS01073500
010735562;EXETER RIVER AT ODELL ROAD, NEAR SANDOWN, NH;42.94897557;-71.16478279;USGS010735562
01073587;EXETER RIVER AT HAIGH ROAD, NEAR BRENTWOOD, NH;42.9845316;-71.038392;USGS01073587
01073785;WINNICUT RIVER AT GREENLAND, NR PORTSMOUTH, NH;43.0358333;-70.8475;USGS01073785
01074520;EAST BRANCH PEMIGEWASSET RIVER AT LINCOLN, NH;44.0475669;-71.6598029;USGS01074520
01075000;PEMIGEWASSET RIVER AT WOODSTOCK, NH;43.9761792;-71.6795244;USGS01075000
01076000;BAKER RIVER NEAR RUMNEY, NH;43.79562647;-71.8453594;USGS01076000
01076500;PEMIGEWASSET RIVER AT PLYMOUTH, NH;43.7592388;-71.6856337;USGS01076500
01077400;COCKERMOUTH RIVER BELOW HARDY BROOK, AT GROTON, NH;43.70388889;-71.8333333;USGS01077400
01078000;SMITH RIVER NEAR BRISTOL, NH;43.56646307;-71.747857;USGS01078000
01081000;WINNIPESAUKEE RIVER AT TILTON, NH;43.44174376;-71.5875752;USGS01081000
01081500;MERRIMACK RIVER AT FRANKLIN JUNCTION, NH;43.42285456;-71.6528543;USGS01081500
01082000;CONTOOCOOK RIVER AT PETERBOROUGH, NH;42.8625837;-71.95924609;USGS01082000
01083000;NUBANUSIT BK BLW MACDOWELL DAM NR PETERBOROUGH NH;42.8928607;-71.9867469;USGS01083000
01085000;CONTOOCOOK RIVER NEAR HENNIKER, NH;43.1520237;-71.85730149;USGS01085000
01085500;CONTOOCOOK R BL HOPKINTON DAM AT W HOPKINTON, NH;43.1928569;-71.7472995;USGS01085500
01086000;WARNER RIVER AT DAVISVILLE, NH;43.25091159;-71.7322996;USGS01086000
01087000;BLACKWATER RIVER NEAR WEBSTER, NH;43.2970225;-71.6945212;USGS01087000
01087850;CONTOOCOOK RIVER AT RIVER HILL, NEAR PENACOOK, NH;43.24980178;-71.61951889;USGS01087850
01088400;MERRIMACK RIVER AT CONCORD, NH;43.20896997;-71.5303494;USGS01088400
01089100;SOUCOOK RIVER, AT PEMBROKE ROAD, NEAR CONCORD, NH;43.21369248;-71.4803481;USGS01089100
01089500;SUNCOOK RIVER AT NORTH CHICHESTER, NH;43.25674759;-71.36951248;USGS01089500
01089925;SUNCOOK RIVER AT NH 28, NEAR SUNCOOK, NH;43.15980438;-71.4059011;USGS01089925
01090800;PISCATAQUOG RIVER BL EVERETT DAM, NR E WEARE, NH;43.0914705;-71.6595182;USGS01090800
01091000;SOUTH BRANCH PISCATAQUOG RIVER NEAR GOFFSTOWN, NH;43.01480519;-71.64146129;USGS01091000
01091500;PISCATAQUOG RIVER NEAR GOFFSTOWN, NH;43.01675;-71.5506252;USGS01091500
01092000;MERRIMACK R NR GOFFS FALLS, BELOW MANCHESTER, NH;42.9481405;-71.4634002;USGS01092000
01093852;SOUHEGAN RIVER (SITE WLR-1) NEAR MILFORD, NH;42.8425858;-71.7067399;USGS01093852
01094000;SOUHEGAN RIVER AT MERRIMACK, NH;42.8575865;-71.5061785;USGS01094000
01094400;NORTH NASHUA RIVER AT FITCHBURG, MA;42.57620079;-71.7881285;USGS01094400
01094500;NORTH NASHUA RIVER NEAR LEOMINSTER, MA;42.49506389;-71.7219333;USGS01094500
01095220;STILLWATER RIVER NEAR STERLING, MA;42.41092507;-71.7911829;USGS01095220
01095375;QUINAPOXET RIVER AT CANADA MILLS NEAR HOLDEN, MA;42.37286967;-71.8281279;USGS01095375
01095434;GATES BROOK NEAR WEST BOYLSTON, MA;42.36453675;-71.775349;USGS01095434
01096000;SQUANNACOOK RIVER NEAR WEST GROTON, MA;42.63425619;-71.6578479;USGS01096000
01096500;NASHUA RIVER AT EAST PEPPERELL, MA;42.66758945;-71.57506809;USGS01096500
010965852;BEAVER BROOK AT NORTH PELHAM, NH;42.78286636;-71.35367448;USGS010965852
01097000;ASSABET RIVER AT MAYNARD, MA;42.432038;-71.4497848;USGS01097000
01097300;NASHOBA BROOK NEAR ACTON, MA;42.51259289;-71.40422829;USGS01097300
01098530;SUDBURY RIVER AT SAXONVILLE, MA;42.3253732;-71.3975605;USGS01098530
01099500;CONCORD R BELOW R MEADOW BROOK, AT LOWELL, MA;42.6367581;-71.3020047;USGS01099500
01100000;MERRIMACK RIVER BL CONCORD RIVER AT LOWELL, MA;42.64592464;-71.2983937;USGS01100000
01100500;MERRIMACK RIVER AT LAWRENCE, MA;42.7048333;-71.15313889;USGS01100500
01100505;SPICKET RIVER AT NORTH SALEM, NH;42.8492547;-71.2150607;USGS01100505
01100561;SPICKET RIVER NEAR METHUEN, MA;42.7431456;-71.208393;USGS01100561
01100568;SHAWSHEEN RIVER AT HANSCOM FIELD NEAR BEDFORD, MA;42.46703909;-71.2722795;USGS01100568
01100600;SHAWSHEEN RIVER NEAR WILMINGTON, MA;42.5681488;-71.2147792;USGS01100600
01100627;SHAWSHEEN RIVER AT BALMORAL STREET AT ANDOVER, MA;42.6714806;-71.1492239;USGS01100627
01100693;MERRIMACK R 0.3 MILES U.S.RT 125 AT HAVERHILL,MA;42.77277778;-71.0830556;USGS01100693
01100870;MERRIMACK RIVER AT NEWBURYPORT, MA;42.81564687;-70.87283057;USGS01100870
01101000;PARKER RIVER AT BYFIELD, MA;42.75286948;-70.9456096;USGS01101000
01101500;IPSWICH RIVER AT SOUTH MIDDLETON, MA;42.56953869;-71.0269974;USGS01101500
01102000;IPSWICH RIVER NEAR IPSWICH, MA;42.6598157;-70.8936622;USGS01102000
01102345;SAUGUS RIVER AT SAUGUS IRONWORKS AT SAUGUS, MA;42.4695404;-71.0069954;USGS01102345
01103025;ALEWIFE BROOK NEAR ARLINGTON, MA;42.40704077;-71.1339422;USGS01103025
01103050;MYSTIC R AT AMELIA EARHART DAM NR SOMERVILLE, MA;42.39565236;-71.07505177;USGS01103050
01103280;CHARLES RIVER AT MEDWAY, MA;42.1398197;-71.3895032;USGS01103280
01103455;TROUT BROOK AT DOVER, MA;42.25398645;-71.29339017;USGS01103455
01103500;CHARLES RIVER AT DOVER, MA;42.256209;-71.2600558;USGS01103500
01104000;MOTHER BROOK AT DEDHAM, MA;42.2550985;-71.1642196;USGS01104000
01104200;CHARLES RIVER AT WELLESLEY, MA;42.3164861;-71.227833;USGS01104200
01104370;STONY BROOK AT VILES STREET, NEAR WESTON, MA;42.38555556;-71.2894444;USGS01104370
01104405;HOBBS BROOK AT MILL ST NR LINCOLN, MA;42.436484;-71.2695014;USGS01104405
01104415;CAMBRIDGE RES., UNNAMED TRIB 2, NR LEXINGTON, MA;42.43592855;-71.2600567;USGS01104415
01104420;CAMBRIDGE RES., UNNAMED TRIB 3, NR LEXINGTON, MA;42.4198177;-71.2575565;USGS01104420
01104430;HOBBS BK BELOW CAMBRIDGE RES NR KENDALL GREEN, MA;42.3981512;-71.2733903;USGS01104430
01104453;STONY BROOK UNNAMED TRIB 2 NR WESTON STATION;42.37138889;-71.27527778;USGS01104453
01104455;STONY BROOK, UNNAMED TRIBUTARY 1, NEAR WALTHAM, MA;42.37259606;-71.27033448;USGS01104455
01104460;STONY BROOK AT RT 20 AT WALTHAM, MA;42.368985;-71.2706123;USGS01104460
01104475;STONY BROOK RES., UNNAMED TRIB 1, NEAR WESTON, MA;42.3545408;-71.2681121;USGS01104475
01104480;STONY BROOK RESERVOIR AT DAM NEAR WALTHAM, MA;42.3556519;-71.2650565;USGS01104480
01104500;CHARLES RIVER AT WALTHAM, MA;42.37231857;-71.2336668;USGS01104500
01104501;BEAVER BROOK, LINDEN STREET, AT WALTHAM, MA;42.3786972;-71.2223722;USGS01104501
01104683;MUDDY RIVER AT BROOKLINE, MA;42.3373197;-71.11116328;USGS01104683
01104705;CHARLES RIVER AT FIRST ST AT CAMBRIDGE, MA;42.3622222;-71.0786111;USGS01104705
01104715;CHARLES RIVER, NEW CHARLES RIVER DAM AT BOSTON, MA;42.36888889;-71.0616667;USGS01104715
01105000;NEPONSET RIVER AT NORWOOD, MA;42.1775987;-71.2008863;USGS01105000
01105500;EAST BRANCH NEPONSET RIVER AT CANTON, MA;42.15454356;-71.1458842;USGS01105500
01105554;NEPONSET RIVER AT GREENLODGE ST NEAR CANTON, MA;42.2092655;-71.1458851;USGS01105554
011055566;NEPONSET RIVER AT MILTON VILLAGE, MA;42.2709321;-71.06838369;USGS011055566
01105583;MONATIQUOT RIVER AT EAST BRAINTREE, MA;42.22093308;-70.9781026;USGS01105583
01105584;TOWN BROOK AT DIVERSION TUNNEL AT QUINCY, MA;42.24444444;-71.0044444;USGS01105584
01105585;TOWN BROOK AT QUINCY, MA;42.24787726;-70.9972703;USGS01105585
01105600;OLD SWAMP RIVER NEAR SOUTH WEYMOUTH, MA;42.1903779;-70.9447679;USGS01105600
01105606;WHITMANS POND, WHITMANS POND DAM AT E. WEYMOUTH,MA;42.2108333;-70.9294444;USGS01105606
01105607;WHITMANS POND FLOOD BY-PASS AT EAST WEYMOUTH, MA;42.21277778;-70.9275;USGS01105607
01105608;WHITMANS POND FISH LADDER AT EAST WEYMOUTH, MA;42.21305556;-70.92638889;USGS01105608
01105638;WEIR RIVER AT LEAVITT STREET AT HINGHAM, MA;42.2348226;-70.8719892;USGS01105638
01105730;INDIAN HEAD RIVER AT HANOVER, MA;42.1006571;-70.8225415;USGS01105730
01105870;JONES RIVER AT KINGSTON, MA;41.9909362;-70.7336491;USGS01105870
01105876;EEL RIVER AT RT 3A NEAR PLYMOUTH, MA;41.94177039;-70.6225338;USGS01105876
011058798;HERRING R AT CHEQUESSETT NECK RD AT WELLFLEET, MA;41.9311111;-70.0645556;USGS011058798
01105880;HERRING RIVER AT NORTH HARWICH, MA;41.70011074;-70.1069625;USGS01105880
011058837;QUASHNET RIVER AT WAQUOIT VILLAGE, MA;41.59233175;-70.50780579;USGS011058837
01105917;MATTAPOISETT RIVER NEAR MATTAPOISETT, MA;41.66260446;-70.8383696;USGS01105917
01105933;PASKAMANSET RIVER NEAR SOUTH DARTMOUTH, MA;41.58538185;-70.9903171;USGS01105933
01108000;TAUNTON RIVER NEAR BRIDGEWATER, MA;41.9339903;-70.9564307;USGS01108000
01108410;MILL RIVER AT SPRING STREET AT TAUNTON, MA;41.8998232;-71.0894897;USGS01108410
01109000;WADING RIVER NEAR NORTON, MA;41.94760015;-71.1767155;USGS01109000
01109060;THREEMILE RIVER AT NORTH DIGHTON, MA;41.8662122;-71.12282369;USGS01109060
01109070;SEGREGANSET RIVER NEAR DIGHTON, MA;41.840379;-71.142824;USGS01109070
01109403;TEN MILE R., PAWTUCKET AVE. AT E. PROVIDENCE, RI;41.83093376;-71.3511649;USGS01109403
01109730;BLACKSTONE RIVER, W. MAIN ST., AT MILLBURY, MA;42.1889835;-71.7650702;USGS01109730
01110000;QUINSIGAMOND RIVER AT NORTH GRAFTON, MA;42.230372;-71.7109023;USGS01110000
01110500;BLACKSTONE RIVER AT NORTHBRIDGE, MA;42.15370688;-71.65201138;USGS01110500
01111200;WEST RIVER BELOW WEST HILL DAM, NR UXBRIDGE, MA;42.1048189;-71.6072875;USGS01111200
01111212;BLACKSTONE RIVER, RT 122 BRIDGE NEAR UXBRIDGE, MA;42.05481959;-71.6164542;USGS01111212
01111230;BLACKSTONE RIVER AT MILLVILLE, MA;42.0228757;-71.5722859;USGS01111230
01111300;NIPMUC RIVER NEAR HARRISVILLE, RI;41.9812093;-71.68590049;USGS01111300
01111500;BRANCH RIVER AT FORESTDALE, RI;41.99648716;-71.5625632;USGS01111500
01112500;BLACKSTONE RIVER AT WOONSOCKET, RI;42.00620936;-71.5031168;USGS01112500
01113895;BLACKSTONE R AT ROOSEVELT ST AT PAWTUCKET RI;41.88871088;-71.38144468;USGS01113895
01114000;MOSHASSUCK RIVER AT PROVIDENCE, RI;41.833989;-71.41061208;USGS01114000
01114500;WOONASQUATUCKET RIVER AT CENTERDALE, RI;41.8589884;-71.4872823;USGS01114500
01115098;PEEPTOAD BROOK AT ELMDALE RD NR NORTH SCITUATE, RI;41.8525992;-71.6061754;USGS01115098
01115110;HUNTINGHOUSE BK AT ELMDALE RD AT N SCITUATE, RI;41.84676589;-71.6117311;USGS01115110
01115114;RUSH BROOK NEAR ELMDALE RD NEAR NORTH SCITUATE, RI;41.83759929;-71.6120089;USGS01115114
01115120;UNNAMED TRIB TO SCITUATE RES NR NORTH SCITUATE, RI;41.8314882;-71.6089532;USGS01115120
01115170;MOSWANSICUT STREAM NR NORTH SCITUATE, RI;41.84093269;-71.584508;USGS01115170
01115183;QUONAPAUG BK AT RT 116 NR NORTH SCITUATE, RI;41.79759966;-71.5847857;USGS01115183
01115184;SPRUCE BROOK NR NORTH SCITUATE, RI;41.7887107;-71.6200647;USGS01115184
01115187;PONAGANSET RIVER AT SOUTH FOSTER, RI;41.8187102;-71.7050677;USGS01115187
01115190;DOLLY COLE BK AT OLD DANIELSON PK AT S FOSTER, RI;41.8223213;-71.70034528;USGS01115190
01115265;HEMLOCK BROOK AT KING ROAD NR FOSTER, RI;41.7906548;-71.6986785;USGS01115265
01115275;BEAR TREE BROOK NR CLAYVILLE, RI;41.7825994;-71.67478879;USGS01115275
01115276;WESTCONNAUG STREAM AT PLAINFIELD PIKE, RI;41.7853772;-71.6672885;USGS01115276
01115280;CORK BK AT ROCKLAND SCITUATE RD NR CLAYVILLE, RI;41.80398827;-71.6497879;USGS01115280
01115297;WILBUR HOLLOW BK AT OLD PLAINFIELD PK NR CLAYVILLE;41.7648219;-71.6356207;USGS01115297
01115630;NOOSENECK RIVER AT NOOSENECK, RI;41.6267667;-71.6325646;USGS01115630
01116000;SOUTH BRANCH PAWTUXET RIVER AT WASHINGTON, RI;41.69010026;-71.5658958;USGS01116000
01116500;PAWTUXET RIVER AT CRANSTON, RI;41.75093399;-71.4450575;USGS01116500
01116905;HUNT R 250 FT DS FRY BRK AT FRENCHTOWN, RI;41.63;-71.47888889;USGS01116905
01117000;HUNT RIVER NEAR EAST GREENWICH, RI;41.6412122;-71.4445016;USGS01117000
01117350;CHIPUXET RIVER AT WEST KINGSTON, RI;41.4823233;-71.5511719;USGS01117350
01117370;QUEEN R AT LIBERTY RD AT LIBERTY RI;41.53898957;-71.568673;USGS01117370
01117420;USQUEPAUG RIVER NEAR USQUEPAUG, RI;41.4767673;-71.6047849;USGS01117420
01117430;PAWCATUCK RIVER AT KENYON, RI;41.44621186;-71.6211738;USGS01117430
01117468;BEAVER RIVER NEAR USQUEPAUG, RI;41.49260037;-71.6281194;USGS01117468
01117500;PAWCATUCK RIVER AT WOOD RIVER JUNCTION, RI;41.44510024;-71.68089828;USGS01117500
01117800;WOOD RIVER NEAR ARCADIA, RI;41.5739884;-71.72062318;USGS01117800
01118000;WOOD RIVER AT HOPE VALLEY, RI;41.49815516;-71.7164561;USGS01118000
01118300;PENDELTON HILL BROOK NEAR CLARKS FALLS, CT;41.4748222;-71.8342361;USGS01118300
01118500;PAWCATUCK RIVER AT WESTERLY, RI;41.38371065;-71.8331247;USGS01118500
01119382;WILLIMANTIC RIVER AT MERROW RD. NEAR MERROW, CT;41.8240111;-72.3128472;USGS01119382
01119500;WILLIMANTIC RIVER NEAR COVENTRY, CT;41.7506544;-72.26563469;USGS01119500
01120790;NATCHAUG RIVER AT MARCY RD. NEAR CHAPLIN, CT;41.81616944;-72.1061694;USGS01120790
01121000;MOUNT HOPE RIVER NEAR WARRENVILLE, CT;41.8437089;-72.1689662;USGS01121000
01121330;FENTON RIVER AT MANSFIELD, CT;41.83319444;-72.2427806;USGS01121330
01122000;NATCHAUG RIVER AT WILLIMANTIC, CT;41.7201;-72.195575;USGS01122000
01122500;SHETUCKET RIVER NEAR WILLIMANTIC, CT;41.70037644;-72.1820223;USGS01122500
01123000;LITTLE RIVER NEAR HANOVER, CT;41.6717651;-72.05229807;USGS01123000
011230695;SHETUCKET RIVER AT TAFTVILLE, CT;41.57000278;-72.0462444;USGS011230695
01123360;QUINEBAUG R BL E BRIMFIELD DAM AT FISKDALE, MA;42.108375;-72.1261306;USGS01123360
01123600;QUINEBAUG R BL WESTVILLE DAM NR SOUTHBRIDGE, MA;42.08261944;-72.0583806;USGS01123600
01124000;QUINEBAUG RIVER AT QUINEBAUG, CT;42.0223189;-71.9556289;USGS01124000
01124151;QUINEBAUG RIVER AT WEST THOMPSON, CT;41.94356667;-71.8995972;USGS01124151
01124350;FRENCH RIVER BELOW DAM, AT HODGES VILLAGE, MA;42.11842857;-71.8811833;USGS01124350
01124500;LITTLE RIVER NEAR OXFORD, MA;42.11592856;-71.89007238;USGS01124500
01125000;FRENCH RIVER AT WEBSTER, MA;42.0509298;-71.88507208;USGS01125000
01125100;FRENCH RIVER AT NORTH GROSVENORDALE, CT;41.97846389;-71.90051389;USGS01125100
01125490;LITTLE RIVER AT HARRISVILLE, CT;41.92784444;-71.9300083;USGS01125490
01125500;QUINEBAUG RIVER AT PUTNAM, CT;41.909475;-71.91386389;USGS01125500
01127000;QUINEBAUG RIVER AT JEWETT CITY, CT;41.59749167;-71.9840944;USGS01127000
01127500;YANTIC RIVER AT YANTIC, CT;41.5587094;-72.1214666;USGS01127500
011277905;LATIMER BROOK NR I-95N EXIT 75 NR FLANDERS, CT;41.3686111;-72.2022222;USGS011277905
01129200;CONNECTICUT R BELOW INDIAN STREAM NR PITTSBURG, NH;45.04032368;-71.4439704;USGS01129200
01129500;CONNECTICUT RIVER AT NORTH STRATFORD, NH;44.74977166;-71.63120018;USGS01129500
01130000;UPPER AMMONOOSUC RIVER NEAR GROVETON, NH;44.62505316;-71.4689721;USGS01130000
01131500;CONNECTICUT RIVER NEAR DALTON, NH;44.4100591;-71.7206438;USGS01131500
01133000;EAST BRANCH PASSUMPSIC RIVER NEAR EAST HAVEN, VT;44.63394195;-71.8975942;USGS01133000
01134500;MOOSE RIVER AT VICTORY, VT;44.5117231;-71.8373143;USGS01134500
01135150;POPE BROOK (SITE W-3) NEAR NORTH DANVILLE, VT;44.47616707;-72.1245431;USGS01135150
01135300;SLEEPERS RIVER (SITE W-5) NEAR ST. JOHNSBURY, VT;44.4353353;-72.03842899;USGS01135300
01135500;PASSUMPSIC RIVER AT PASSUMPSIC, VT;44.3656147;-72.0392613;USGS01135500
01137500;AMMONOOSUC RIVER AT BETHLEHEM JUNCTION, NH;44.2686741;-71.6303617;USGS01137500
01138500;CONNECTICUT RIVER AT WELLS RIVER, VT;44.15339689;-72.0417577;USGS01138500
01139000;WELLS RIVER AT WELLS RIVER, VT;44.1503413;-72.0650915;USGS01139000
01139800;EAST ORANGE BRANCH AT EAST ORANGE, VT;44.0928419;-72.33565327;USGS01139800
01141500;OMPOMPANOOSUC RIVER AT UNION VILLAGE, VT;43.79006996;-72.254813;USGS01141500
01142500;AYERS BROOK AT RANDOLPH, VT;43.93450969;-72.6578821;USGS01142500
01144000;WHITE RIVER AT WEST HARTFORD, VT;43.71423614;-72.418149;USGS01144000
01144500;CONNECTICUT RIVER AT WEST LEBANON, NH;43.64618187;-72.3123134;USGS01144500
01150900;OTTAUQUECHEE RIVER NEAR WEST BRIDGEWATER, VT;43.62229069;-72.7589899;USGS01150900
01151500;OTTAUQUECHEE RIVER AT NORTH HARTLAND, VT;43.60257077;-72.35425819;USGS01151500
01152500;SUGAR RIVER AT WEST CLAREMONT, NH;43.38757327;-72.36203409;USGS01152500
01153000;BLACK RIVER AT NORTH SPRINGFIELD, VT;43.33340716;-72.51481258;USGS01153000
01153550;WILLIAMS RIVER NEAR ROCKINGHAM VT;43.1917433;-72.48508889;USGS01153550
01154000;SAXTONS RIVER AT SAXTONS RIVER, VT;43.13757777;-72.4881444;USGS01154000
01154500;CONNECTICUT RIVER AT NORTH WALPOLE, NH;43.12618905;-72.4367549;USGS01154500
01154950;COLD RIVER AT HIGH STREET, AT ALSTEAD, NH;43.14944444;-72.3616667;USGS01154950
01155349;WEST RIVER BELOW WINHALL RIVER, NEAR JAMAICA, VT;43.15694444;-72.79777778;USGS01155349
01155500;WEST RIVER AT JAMAICA, VT;43.1089665;-72.775374;USGS01155500
01155910;WEST RIVER BELOW TOWNSHEND DAM NEAR TOWNSHEND, VT;43.0511901;-72.7000939;USGS01155910
01157000;ASHUELOT RIVER NEAR GILSUM, NH;43.03924586;-72.2700858;USGS01157000
01158000;ASHUELOT RIVER BELOW SURRY MT DAM, NEAR KEENE, NH;42.9948023;-72.31119719;USGS01158000
01158110;ASHUELOT RIVER ABOVE THE BRANCH, AT KEENE, NH;42.9192478;-72.279252;USGS01158110
01158600;OTTER BROOK BELOW OTTER BROOK DAM, NEAR KEENE, NH;42.94591409;-72.2367514;USGS01158600
01160350;ASHUELOT RIVER AT WEST SWANZEY, NH;42.87147076;-72.3281415;USGS01160350
01161000;ASHUELOT RIVER AT HINSDALE, NH;42.78591586;-72.4861996;USGS01161000
01162000;MILLERS RIVER NEAR WINCHENDON, MA;42.6842527;-72.08341388;USGS01162000
01162500;PRIEST BROOK NEAR WINCHENDON, MA;42.6825859;-72.1150812;USGS01162500
01163200;OTTER RIVER AT OTTER RIVER, MA;42.58842124;-72.04091198;USGS01163200
01163500;MILLERS R BL BIRCH HILL DAM AT SOUTH ROYALSTON, MA;42.63258676;-72.12313648;USGS01163500
01164000;MILLERS RIVER AT SOUTH ROYALSTON, MA;42.6298089;-72.15035928;USGS01164000
01165000;EAST BRANCH TULLY RIVER NEAR ATHOL, MA;42.6423083;-72.22563877;USGS01165000
01166500;MILLERS RIVER AT ERVING, MA;42.5975862;-72.4381423;USGS01166500
01168250;COLD RIVER AT FLORIDA, MA;42.66644444;-73.0303611;USGS01168250
01168500;DEERFIELD RIVER AT CHARLEMONT, MA;42.626;-72.8541944;USGS01168500
01169000;NORTH RIVER AT SHATTUCKVILLE, MA;42.63841775;-72.7250922;USGS01169000
01169900;SOUTH RIVER NEAR CONWAY, MA;42.5420303;-72.69370179;USGS01169900
01170000;DEERFIELD RIVER NEAR WEST DEERFIELD, MA;42.53591957;-72.65342328;USGS01170000
01170100;GREEN RIVER NEAR COLRAIN, MA;42.70341695;-72.67064738;USGS01170100
01170500;CONNECTICUT RIVER AT MONTAGUE CITY, MA;42.5802222;-72.5745;USGS01170500
01171500;MILL RIVER AT NORTHAMPTON, MA;42.31897839;-72.6650907;USGS01171500
01172010;CONNECTICUT R AT I-391 BRIDGE AT HOLYOKE, MA;42.19146944;-72.6093111;USGS01172010
01172500;WARE RIVER NEAR BARRE, MA;42.42509025;-72.0245212;USGS01172500
01173000;WARE RIVER AT INTAKE WORKS NEAR BARRE, MA;42.3906461;-72.060355;USGS01173000
01173500;WARE RIVER AT GIBBS CROSSING, MA;42.2362038;-72.27258047;USGS01173500
01174500;EAST BRANCH SWIFT RIVER NEAR HARDWICK, MA;42.3934237;-72.2386926;USGS01174500
01174565;WEST BRANCH SWIFT RIVER NEAR SHUTESBURY, MA;42.45508906;-72.3817516;USGS01174565
01175500;SWIFT RIVER AT WEST WARE, MA;42.2678699;-72.3325824;USGS01175500
01175670;SEVENMILE RIVER NEAR SPENCER, MA;42.26509185;-72.0047973;USGS01175670
01176000;QUABOAG RIVER AT WEST BRIMFIELD, MA;42.18231566;-72.263691;USGS01176000
01177000;CHICOPEE RIVER AT INDIAN ORCHARD, MA;42.16064906;-72.5139756;USGS01177000
01179500;WESTFIELD RIVER AT KNIGHTVILLE, MA;42.28786655;-72.8642636;USGS01179500
01180500;MIDDLE BRANCH WESTFIELD RIVER AT GOSS HEIGHTS, MA;42.25870025;-72.8725975;USGS01180500
01181000;WEST BRANCH WESTFIELD RIVER AT HUNTINGTON, MA;42.23731169;-72.895654;USGS01181000
01183500;WESTFIELD RIVER NEAR WESTFIELD, MA;42.1067602;-72.698981;USGS01183500
01184000;CONNECTICUT RIVER AT THOMPSONVILLE, CT;41.9873186;-72.6053669;USGS01184000
01184100;STONY BROOK NEAR WEST SUFFIELD, CT;41.96083889;-72.7104861;USGS01184100
01184490;BROAD BROOK AT BROAD BROOK, CT;41.9138972;-72.5497;USGS01184490
01185500;WEST BRANCH FARMINGTON RIVER NEAR NEW BOSTON, MA;42.0788611;-73.0728833;USGS01185500
01186000;WEST BRANCH FARMINGTON RIVER AT RIVERTON, CT;41.9628729;-73.017606;USGS01186000
01186500;STILL RIVER AT ROBERTSVILLE, CT;41.9679222;-73.0334444;USGS01186500
01187300;HUBBARD RIVER NEAR WEST HARTLAND, CT;42.0375;-72.93932778;USGS01187300
01188000;BUNNELL (BURLINGTON) BROOK NEAR BURLINGTON, CT;41.786209;-72.9648261;USGS01188000
01188090;FARMINGTON RIVER AT UNIONVILLE, CT;41.7555472;-72.8870417;USGS01188090
01189213;FARMINGTON RIVER AT SIMSBURY, CT;41.86970556;-72.7972444;USGS01189213
01189995;FARMINGTON RIVER AT TARIFFVILLE, CT;41.9082833;-72.75935278;USGS01189995
01190070;CONNECTICUT RIVER AT HARTFORD, CT;41.76909444;-72.66755;USGS01190070
01191000;NORTH BRANCH PARK RIVER AT HARTFORD, CT;41.78443889;-72.7080556;USGS01191000
01192500;HOCKANUM RIVER NEAR EAST HARTFORD, CT;41.7831548;-72.5873114;USGS01192500
01192883;COGINCHAUG RIVER AT MIDDLEFIELD, CT;41.5202333;-72.7065306;USGS01192883
01193050;CONNECTICUT RIVER AT MIDDLE HADDAM, CT;41.5417656;-72.5531454;USGS01193050
01193463;SALMON RIVER US WOLF BROOK NR N WESTCHESTER CT;41.57416944;-72.42947778;USGS01193463
01193500;SALMON RIVER NEAR EAST HAMPTON, CT;41.55232124;-72.44925287;USGS01193500
01194000;EIGHTMILE RIVER AT NORTH PLAIN, CT;41.44166944;-72.33267778;USGS01194000
01194500;EAST BRANCH EIGHTMILE RIVER NEAR NORTH LYME, CT;41.42751667;-72.33477778;USGS01194500
01194750;CONNECTICUT RIVER AT ESSEX, CT;41.3514833;-72.3843667;USGS01194750
01194796;CONNECTICUT RIVER AT OLD LYME, CT;41.3125983;-72.3459166;USGS01194796
01195100;INDIAN RIVER NEAR CLINTON, CT;41.3061722;-72.5310333;USGS01195100
01195290;GUILFORD HARBOR AT OLD WHITFIELD ST NR GUILFORD,CT;41.2722111;-72.66542778;USGS01195290
01195490;QUINNIPIAC RIVER AT SOUTHINGTON, CT;41.6034722;-72.8832;USGS01195490
01195510;QUINNIPIAC RIVER DS W CENTER ST AT SOUTHINGTON, CT;41.5991111;-72.8857222;USGS01195510
01196222;QUINNIPIAC R NR MERIDEN, CT;41.5292642;-72.8634344;USGS01196222
01196500;QUINNIPIAC RIVER AT WALLINGFORD, CT;41.45026389;-72.841275;USGS01196500
01196528;QUINNIPIAC RIVER US RTE 22 AT N HAVEN, CT;41.39795;-72.8682056;USGS01196528
01196561;MUDDY RIVER NEAR EAST WALLINGFORD, CT;41.4356083;-72.7794917;USGS01196561
01196620;MILL RIVER NEAR HAMDEN, CT;41.42041389;-72.9026583;USGS01196620
01197000;EAST BRANCH HOUSATONIC RIVER AT COLTSVILLE, MA;42.4695833;-73.1973333;USGS01197000
01197500;HOUSATONIC RIVER NEAR GREAT BARRINGTON, MA;42.23191667;-73.3546667;USGS01197500
01198000;GREEN RIVER NEAR GREAT BARRINGTON, MA;42.1929083;-73.3912306;USGS01198000
01198125;HOUSATONIC RIVER NEAR ASHLEY FALLS, MA;42.0748138;-73.33344858;USGS01198125
01199000;HOUSATONIC RIVER AT FALLS VILLAGE, CT;41.95731548;-73.36928577;USGS01199000
01199050;SALMON CREEK AT LIME ROCK, CT;41.94231548;-73.3909532;USGS01199050
01200000;TENMILE RIVER NEAR GAYLORDSVILLE, CT;41.65876389;-73.5286833;USGS01200000
01200500;HOUSATONIC RIVER AT GAYLORDSVILLE, CT;41.6531496;-73.4898462;USGS01200500
01200600;HOUSATONIC RIVER NEAR NEW MILFORD, CT;41.5931499;-73.4495669;USGS01200600
01201487;STILL RIVER AT ROUTE 7 AT BROOKFIELD CENTER, CT;41.4658222;-73.40320278;USGS01201487
01202501;SHEPAUG RIVER AT PETERS DAM AT WOODVILLE, CT;41.719575;-73.29260278;USGS01202501
01203000;SHEPAUG R NR ROXBURY, CT;41.54981744;-73.32984029;USGS01203000
012035055;POOTATUCK RIVER AT BERKSHIRE;41.4065472;-73.2731833;USGS012035055
01203510;POOTATUCK RIVER AT SANDY HOOK, CT;41.41925;-73.2821;USGS01203510
01203600;NONEWAUG RIVER AT MINORTOWN, CT;41.57585;-73.1784667;USGS01203600
01203805;WEEKEEPEEMEE RIVER AT HOTCHKISSVILLE, CT;41.5577083;-73.21535278;USGS01203805
01204000;POMPERAUG RIVER AT SOUTHBURY, CT;41.48193889;-73.2245722;USGS01204000
01205500;HOUSATONIC RIVER AT STEVENSON, CT;41.38380278;-73.16663889;USGS01205500
01206900;NAUGATUCK RIVER AT THOMASTON, CT;41.6737084;-73.0695527;USGS01206900
01208500;NAUGATUCK RIVER AT BEACON FALLS, CT;41.4423;-73.0622833;USGS01208500
01208873;ROOSTER RIVER AT FAIRFIELD, CT;41.1798189;-73.21900219;USGS01208873
01208925;MILL RIVER NEAR FAIRFIELD, CT;41.165475;-73.2700083;USGS01208925
01208950;SASCO BROOK NEAR SOUTHPORT, CT;41.15287436;-73.3059495;USGS01208950
01208990;SAUGATUCK RIVER NEAR REDDING, CT;41.29454;-73.39512029;USGS01208990
01209005;SAUGATUCK R BELOW SAUGATUCK RES NR LYONS PLAIN, CT;41.24551389;-73.3492361;USGS01209005
01209105;ASPETUCK RIVER AT ASPETUCK, CT;41.22874167;-73.3241194;USGS01209105
01209500;SAUGATUCK RIVER NEAR WESTPORT, CT;41.17073056;-73.3648167;USGS01209500
01209510;SAUGATUCK RIVER AT ROUTE 1 AT WESTPORT, CT;41.14089444;-73.3630333;USGS01209510
012095493;RIDGEFIELD BROOK AT SHIELDS LANE NR RIDGEFIELD, CT;41.31408889;-73.4928944;USGS012095493
01209700;NORWALK RIVER AT SOUTH WILTON, CT;41.16376667;-73.4195444;USGS01209700
01209761;FIVEMILE RIVER NEAR NEW CANAAN, CT;41.1743222;-73.51107778;USGS01209761
01209788;STAMFORD HURRICANE BARRIER AT STAMFORD, CT;41.0370415;-73.53428929;USGS01209788
01209901;RIPPOWAM RIVER AT STAMFORD, CT.;41.0661111;-73.5492722;USGS01209901
012112296;GREENWICH HARBOR AT GRASS ISLAND AT GREENWICH, CT;41.0141222;-73.6250806;USGS012112296
01212500;BYRAM RIVER AT PEMBERWICK, CT;41.0272972;-73.66175;USGS01212500
01302020;BRONX RIVER AT NY BOTANICAL GARDEN AT BRONX NY;40.86230556;-73.87438889;USGS01302020
01302250;EAST CREEK AT SANDS POINT NY;40.8662222;-73.7101944;USGS01302250
01302600;WEST POND AT GLEN COVE NY;40.88855556;-73.638;USGS01302600
01302845;FROST CREEK AT SHEEP LN BRIDGE AT LATTINGTOWN NY;40.9051111;-73.5931944;USGS01302845
01303500;COLD SPRING BROOK AT COLD SPRING HARBOR NY;40.8572222;-73.4633333;USGS01303500
01304000;NISSEQUOGUE RIVER NEAR SMITHTOWN NY;40.84944444;-73.2241667;USGS01304000
01304057;FLAX POND AT OLD FIELD NY;40.9628611;-73.1431667;USGS01304057
01304200;ORIENT HARBOR AT ORIENT NY;41.13663889;-72.30675;USGS01304200
01304250;LAUREL LAKE NEAR MATTITUCK NY;40.9828779;-72.5581451;USGS01304250
01304500;PECONIC RIVER AT RIVERHEAD NY;40.9136111;-72.6866667;USGS01304500
01304562;PECONIC RIVER AT COUNTY HWY 105 AT RIVERHEAD NY;40.91777778;-72.6386667;USGS01304562
01304705;GEORGICA POND NEAR APAQUOQUE NY;40.9334333;-72.2245248;USGS01304705
01306460;CONNETQUOT BK NR CENTRAL ISLIP NY;40.77194444;-73.1586111;USGS01306460
01308500;CARLLS RIVER AT BABYLON NY;40.7086111;-73.3283333;USGS01308500
01309225;GREAT SOUTH BAY AT LINDENHURST NY;40.66926687;-73.3556765;USGS01309225
01309500;MASSAPEQUA CREEK AT MASSAPEQUA NY;40.68888889;-73.4547222;USGS01309500
01310521;HUDSON BAY AT FREEPORT NY;40.6276026;-73.5754058;USGS01310521
01310740;REYNOLDS CHANNEL AT POINT LOOKOUT NY;40.5934366;-73.5837396;USGS01310740
01311143;HOG ISLAND CHANNEL AT ISLAND PARK NY;40.6088333;-73.6561111;USGS01311143
01311145;EAST ROCKAWAY INLET AT ATLANTIC BEACH NY;40.59316026;-73.7373543;USGS01311145
01311500;VALLEY STREAM AT VALLEY STREAM NY;40.6636111;-73.7044444;USGS01311500
01311850;JAMAICA BAY AT INWOOD NY;40.6173266;-73.7579103;USGS01311850
01311875;ROCKAWAY INLET NEAR FLOYD BENNETT FIELD NY;40.57371636;-73.885136;USGS01311875
01312000;HUDSON RIVER NEAR NEWCOMB NY;43.96666667;-74.1316667;USGS01312000
01314500;INDIAN LAKE NEAR INDIAN LAKE NY;43.75562018;-74.2759825;USGS01314500
01315000;INDIAN RIVER NEAR INDIAN LAKE NY;43.75638889;-74.2672222;USGS01315000
01315500;HUDSON RIVER AT NORTH CREEK NY;43.7008333;-73.9833333;USGS01315500
01317000;SCHROON RIVER AT RIVERBANK NY;43.60944444;-73.7375;USGS01317000
01318500;HUDSON RIVER AT HADLEY NY;43.31888889;-73.8441667;USGS01318500
01321000;SACANDAGA RIVER NEAR HOPE NY;43.35277778;-74.27027778;USGS01321000
01323500;GREAT SACANDAGA LAKE AT CONKLINGVILLE NY;43.3159042;-73.92706958;USGS01323500
01325000;SACANDAGA RIVER AT STEWARTS BRIDGE NR HADLEY NY;43.31138889;-73.8672222;USGS01325000
01327500;GLENS FALLS FEEDER AT DUNHAM BASIN NY;43.30423926;-73.5465031;USGS01327500
01327750;HUDSON RIVER AT FORT EDWARD NY;43.26944444;-73.5958333;USGS01327750
01328770;HUDSON RIVER AT THOMSON NY;43.12538889;-73.5849167;USGS01328770
01329490;BATTEN KILL BELOW MILL AT BATTENVILLE NY;43.1086111;-73.4216667;USGS01329490
01330000;GLOWEGEE CREEK AT WEST MILTON NY;43.03055556;-73.9272222;USGS01330000
01330884;SARATOGA LAKE AT STATE HWY 9P AT SARATOGA LAKE NY;43.0539722;-73.72113889;USGS01330884
01331500;HOOSIC RIVER AT ADAMS, MA;42.61119407;-73.1239918;USGS01331500
01332500;HOOSIC RIVER NEAR WILLIAMSTOWN, MA;42.70035897;-73.158994;USGS01332500
01333000;GREEN RIVER AT WILLIAMSTOWN, MA;42.7089695;-73.1967729;USGS01333000
01334000;WALLOOMSAC RIVER NEAR NORTH BENNINGTON, VT;42.91285604;-73.2564981;USGS01334000
01334500;HOOSIC RIVER NEAR EAGLE BRIDGE NY;42.9386111;-73.3769444;USGS01334500
01335754;HUDSON RIVER ABOVE LOCK 1 NEAR WATERFORD NY;42.82916667;-73.6661111;USGS01335754
01335755;HUDSON RIVER AT LOCK 1 NEAR WATERFORD NY;42.8239664;-73.6620622;USGS01335755
01336000;MOHAWK RIVER BELOW DELTA DAM NEAR ROME NY;43.26444444;-75.43638889;USGS01336000
01338000;ORISKANY CREEK NEAR ORISKANY NY;43.14277778;-75.3378056;USGS01338000
01339060;SAUQUOIT CREEK AT WHITESBORO NY;43.11144444;-75.294;USGS01339060
01342602;MOHAWK RIVER NEAR UTICA NY;43.0906253;-75.157106;USGS01342602
01342682;MOYER CREEK NEAR FRANKFORT NY;43.02694444;-75.1043056;USGS01342682
01342730;STEELE CREEK AT ILION NY;43.0065833;-75.0416667;USGS01342730
01342743;FULMER CREEK NEAR MOHAWK NY;42.9852222;-74.9904444;USGS01342743
01343060;WEST CANADA CREEK NEAR WILMURT NY;43.3661111;-74.95777778;USGS01343060
01343403;BLACK CREEK NEAR GRAY NY;43.28277778;-74.9591944;USGS01343403
01343900;HINCKLEY RESERVOIR AT HINCKLEY NY;43.3114579;-75.10794;USGS01343900
01346000;WEST CANADA CREEK AT KAST BRIDGE NY;43.06888889;-74.9883333;USGS01346000
01347000;MOHAWK RIVER NEAR LITTLE FALLS NY;43.0147222;-74.7794444;USGS01347000
01348000;EAST CANADA CREEK AT EAST CREEK NY;43.01666667;-74.7408333;USGS01348000
01349000;OTSQUAGO CREEK AT FORT PLAIN NY;42.92925;-74.63288889;USGS01349000
01349150;CANAJOHARIE CREEK NEAR CANAJOHARIE NY;42.8761111;-74.6030556;USGS01349150
01349527;MOHAWK R ABOVE STATE HIGHWAY 30A AT FONDA NY;42.95035136;-74.3720795;USGS01349527
01349700;EAST KILL NEAR JEWETT CENTER NY;42.24916667;-74.30277778;USGS01349700
01349705;SCHOHARIE CREEK NEAR LEXINGTON NY;42.23694444;-74.34027778;USGS01349705
01349711;WEST KILL BELOW HUNTER BROOK NEAR SPRUCETON NY;42.185;-74.2769444;USGS01349711
01349810;WEST KILL NEAR WEST KILL NY;42.23027778;-74.3930556;USGS01349810
01349950;BATAVIA KILL AT RED FALLS NEAR PRATTSVILLE NY;42.3083333;-74.39;USGS01349950
01350000;SCHOHARIE CREEK AT PRATTSVILLE NY;42.31944444;-74.4366667;USGS01350000
01350035;BEAR KILL NEAR PRATTSVILLE NY;42.33805556;-74.4516667;USGS01350035
01350080;MANOR KILL AT WEST CONESVILLE NEAR GILBOA NY;42.37694444;-74.4130556;USGS01350080
01350100;SCHOHARIE RESERVOIR NEAR GRAND GORGE NY;42.3559156;-74.4445923;USGS01350100
01350101;SCHOHARIE CREEK AT GILBOA NY;42.3972222;-74.4505556;USGS01350101
01350120;PLATTER KILL AT GILBOA NY;42.4061111;-74.4472222;USGS01350120
01350140;MINE KILL NEAR NORTH BLENHEIM NY;42.42888889;-74.4730556;USGS01350140
01350180;SCHOHARIE CREEK AT NORTH BLENHEIM NY;42.4658333;-74.4622222;USGS01350180
01350355;SCHOHARIE CREEK AT BREAKABEEN NY;42.53694444;-74.4105556;USGS01350355
01351500;SCHOHARIE CREEK AT BURTONSVILLE NY;42.8;-74.26277778;USGS01351500
01354083;MOHAWK RIVER AT AMSTERDAM NY;42.934;-74.1918611;USGS01354083
01354330;MOHAWK RIVER AT LOCK 8 NEAR SCHENECTADY NY;42.8281583;-73.9903722;USGS01354330
01354500;MOHAWK RIVER AT FREEMAN'S BRIDGE AT SCHENECTADY NY;42.83052778;-73.93075;USGS01354500
01355475;MOHAWK RIVER AT REXFORD NY;42.8511876;-73.887623;USGS01355475
01356000;MOHAWK RIVER AT VISCHER FERRY DAM NY;42.8075;-73.8436111;USGS01356000
01357500;MOHAWK RIVER AT COHOES NY;42.78527778;-73.7075;USGS01357500
01358000;HUDSON RIVER AT GREEN ISLAND NY;42.7522222;-73.68888889;USGS01358000
01359139;HUDSON RIVER AT ALBANY NY;42.6461111;-73.7475;USGS01359139
01359525;NORMANS KILL AT KARLSFELD NY;42.64777778;-73.8455556;USGS01359525
01359528;NORMANS KILL AT ALBANY NY;42.6333333;-73.8055556;USGS01359528
01360640;VALATIE KILL NEAR NASSAU NY;42.55194444;-73.59138889;USGS01360640
01361000;KINDERHOOK CREEK AT ROSSMAN NY;42.33055556;-73.74388889;USGS01361000
01362090;CATSKILL CREEK NEAR CATSKILL NY;42.22325;-73.8854167;USGS01362090
013621955;BIRCH CREEK AT BIG INDIAN NY;42.10888889;-74.4519444;USGS013621955
01362200;ESOPUS CREEK AT ALLABEN NY;42.11694444;-74.38027778;USGS01362200
01362230;DIVERSION FROM SCHOHARIE RESERVOIR NY;42.11453416;-74.3637599;USGS01362230
0136230002;WOODLAND CREEK ABOVE MOUTH AT PHOENICIA NY;42.0797222;-74.3345833;USGS0136230002
01362330;STONY CLOVE CREEK NEAR LANESVILLE NY;42.1300833;-74.2400833;USGS01362330
01362332;STONY CLOVE CREEK AT WRIGHT RD NEAR LANESVILLE NY;42.13027778;-74.2458333;USGS01362332
01362342;HOLLOW TREE BROOK AT LANESVILLE NY;42.1422222;-74.265;USGS01362342
01362350;STONY CLOVE CREEK AT CHICHESTER NY;42.10555556;-74.29;USGS01362350
01362356;WARNER CREEK AT SILVER HOLLOW RD NR CHICHESTER NY;42.0950833;-74.2887222;USGS01362356
01362370;STONY CLOVE CREEK BLW OX CLOVE AT CHICHESTER NY;42.10202778;-74.31088889;USGS01362370
01362497;LITTLE BEAVER KILL AT BEECHFORD NEAR MT TREMPER NY;42.01944444;-74.26638889;USGS01362497
01362500;ESOPUS CREEK AT COLDBROOK NY;42.01416667;-74.2705556;USGS01362500
01363382;BUSH KILL BLW MALTBY HOLLOW BK AT WEST SHOKAN NY;41.96555556;-74.2930556;USGS01363382
01363556;ESOPUS CREEK NEAR LOMONTVILLE NY;41.8793333;-74.1453611;USGS01363556
01364500;ESOPUS CREEK AT MOUNT MARION NY;42.03777778;-73.9719444;USGS01364500
01365000;RONDOUT CREEK NEAR LOWES CORNERS NY;41.86638889;-74.4872222;USGS01365000
01365500;CHESTNUT CREEK AT GRAHAMSVILLE NY;41.845;-74.5394444;USGS01365500
01367500;RONDOUT CREEK AT ROSENDALE NY;41.84305556;-74.0861111;USGS01367500
01367805;Papakating Creek at Roys NJ;41.17;-74.6566222;USGS01367805
01371500;WALLKILL RIVER AT GARDINER NY;41.6861111;-74.16527778;USGS01371500
01372043;HUDSON RIVER NEAR POUGHKEEPSIE NY;41.72176015;-73.94069299;USGS01372043
01372058;HUDSON RIVER BELOW POUGHKEEPSIE NY;41.65092687;-73.9445821;USGS01372058
01372500;WAPPINGER CREEK NEAR WAPPINGERS FALLS NY;41.65305556;-73.8725;USGS01372500
01374019;HUDSON RIVER AT SOUTH DOCK AT WEST POINT NY;41.3862049;-73.95513879;USGS01374019
0137449480;EAST BRANCH CROTON RIVER NEAR PUTNAM LAKE NY;41.44725;-73.5560833;USGS0137449480
01374505;EAST BRANCH CROTON RIVER AT BREWSTER NY;41.39444444;-73.6069444;USGS01374505
01374531;EAST BRANCH CROTON RIVER NEAR CROTON FALLS NY;41.37377778;-73.63875;USGS01374531
01374559;WEST BRANCH CROTON RIVER AT RICHARDSVILLE NY;41.47055556;-73.76;USGS01374559
01374581;W BR CROTON RIVER BELOW DAM NEAR KENT CLIFFS NY;41.4497222;-73.73638889;USGS01374581
01374598;HORSE POUND BROOK NEAR LAKE CARMEL NY;41.4758611;-73.6894722;USGS01374598
0137462010;WEST BRANCH CROTON RIVER NEAR CARMEL NY;41.41180556;-73.69375;USGS0137462010
01374701;WEST BRANCH CROTON RIVER NEAR CROTON FALLS NY;41.358;-73.6679722;USGS01374701
01374781;TITICUS RIVER BELOW JUNE ROAD AT SALEM CENTER NY;41.3273611;-73.5914722;USGS01374781
01374821;TITICUS RIVER AT PURDYS STATION NY;41.32719444;-73.6558333;USGS01374821
01374890;CROSS RIVER NEAR CROSS RIVER NY;41.2602222;-73.6018611;USGS01374890
01374901;CROSS RIVER AT KATONAH NY;41.2661111;-73.6655556;USGS01374901
01374930;MUSCOOT RIVER AT BALDWIN PLACE NY;41.33813889;-73.7686944;USGS01374930
01374941;MUSCOOT RIVER BELOW DAM AT AMAWALK NY;41.2876111;-73.75363889;USGS01374941
01375000;CROTON R AT NEW CROTON DAM NR CROTON-ON-HUDSON NY;41.22502778;-73.85888889;USGS01375000
01376269;HUDSON RIVER AT PIERMONT NY;41.04319444;-73.8960556;USGS01376269
01376800;HACKENSACK RIVER AT WEST NYACK NY;41.09555556;-73.96388889;USGS01376800
01376950;Lake Tappan at Old Tappan NJ;41.0183333;-74.0011111;USGS01376950
01377000;Hackensack River at Rivervale NJ;40.99916667;-73.9891667;USGS01377000
01377370;Pascack Brook at Park Ridge NJ;41.03666667;-74.0391667;USGS01377370
01377450;Woodcliff Lake at Hillsdale NJ;41.01277778;-74.0491667;USGS01377450
01377451;Pascack Bk at Woodcliff Lk outlet at Hillsdale NJ;41.01194444;-74.0480556;USGS01377451
01377500;Pascack Brook at Westwood NJ;40.99277778;-74.0211111;USGS01377500
01378480;Oradell Reservoir at Oradell NJ;40.95638889;-74.0294444;USGS01378480
01378500;Hackensack River at New Milford NJ;40.9483333;-74.0266667;USGS01378500
01378570;Hackensack River at Hackensack NJ;40.87944444;-74.0397222;USGS01378570
01379000;Passaic River near Millington NJ;40.68;-74.52888889;USGS01379000
01379500;Passaic River near Chatham NJ;40.7261111;-74.3897222;USGS01379500
01379530;Canoe Brook near Summit NJ;40.74444444;-74.3536111;USGS01379530
01379773;Green Pond Brook at Picatinny Arsenal NJ;40.96;-74.5397222;USGS01379773
01379780;Green Pond Bk blw Picatinny Lk at Picatinny Ars NJ;40.94944444;-74.5572222;USGS01379780
01379845;Rockaway River at Warren Street at Dover NJ;40.8861111;-74.56;USGS01379845
01380450;Rockaway River at Main Street at Boonton NJ;40.9075;-74.4191667;USGS01380450
01380900;Boonton Reservoir at Boonton NJ;40.89527778;-74.39777778;USGS01380900
01381000;Rockaway River below Reservoir at Boonton NJ;40.89694444;-74.3947222;USGS01381000
01381400;Whippany River near Morristown NJ;40.8122222;-74.5119444;USGS01381400
01381500;Whippany River at Morristown NJ;40.8072222;-74.4569444;USGS01381500
01381800;Whippany River near Pine Brook NJ;40.845;-74.3472222;USGS01381800
01381900;Passaic River at Pine Brook NJ;40.8625;-74.3216667;USGS01381900
01381940;Passaic R at Horse Neck Bridge near Pine Bk NJ;40.8822222;-74.34;USGS01381940
01382210;Pequannock River at Oak Ridge NJ;41.0397222;-74.5016667;USGS01382210
01382385;Pequannock River at Green Pond Junction NJ;41.0247222;-74.4083333;USGS01382385
01382500;Pequannock River at Macopin Intake Dam NJ;41.0183333;-74.4011111;USGS01382500
01382800;Pequannock River at Riverdale NJ;40.9986111;-74.2980556;USGS01382800
01383000;Greenwood Lake at Awosting NJ;41.16166667;-74.3333333;USGS01383000
01383500;Wanaque River at Awosting NJ;41.16027778;-74.3336111;USGS01383500
01384500;Ringwood Creek near Wanaque NJ;41.1272222;-74.2658333;USGS01384500
01386000;West Brook near Wanaque NJ;41.0736111;-74.3116667;USGS01386000
01386990;Wanaque Reservoir at Wanaque NJ;41.045;-74.29527778;USGS01386990
01387000;Wanaque River at Wanaque NJ;41.04416667;-74.2930556;USGS01387000
01387400;RAMAPO RIVER AT RAMAPO NY;41.14027778;-74.1686111;USGS01387400
01387420;RAMAPO RIVER AT SUFFERN NY;41.1183333;-74.16027778;USGS01387420
01387450;Mahwah River near Suffern NY;41.1411111;-74.1161111;USGS01387450
01387500;Ramapo River near Mahwah NJ;41.09805556;-74.16277778;USGS01387500
01387905;Ramapo River at West Oakland Avenue at Oakland NJ;41.0275;-74.25;USGS01387905
01387940;Ramapo River at Lakeside Ave at Pompton Lakes NJ;41.0072222;-74.2744444;USGS01387940
01387998;Ramapo River above dam at Pompton Lakes NJ;40.99277778;-74.27888889;USGS01387998
01388000;Ramapo River at Pompton Lakes NJ;40.99194444;-74.28;USGS01388000
01388100;Ramapo River at Dawes Highway at Pompton NJ;40.98555556;-74.2794444;USGS01388100
01388500;Pompton River at Pompton Plains NJ;40.9697222;-74.2819444;USGS01388500
01388700;Beaver Dam Brook at Lincoln Park NJ;40.9247222;-74.3025;USGS01388700
01388910;Pompton River at Mountain View NJ;40.91444444;-74.2705556;USGS01388910
01389005;Passaic River below Pompton Riv at Two Bridges NJ;40.89638889;-74.2691667;USGS01389005
01389010;Passaic River at I-80 at Singac NJ;40.89444444;-74.2661111;USGS01389010
01389492;Passaic River abv Beatties Dam at Little Falls NJ;40.88444444;-74.2344444;USGS01389492
01389500;Passaic River at Little Falls NJ;40.8847222;-74.2261111;USGS01389500
01389534;Peckman River at Ozone Ave at Verona NJ;40.845;-74.2355556;USGS01389534
01389550;Peckman River at Little Falls NJ;40.87194444;-74.2222222;USGS01389550
01389765;Molly Ann Brook at North Haledon NJ;40.95305556;-74.1847222;USGS01389765
01389802;Passaic R at Passaic (Great) Falls at Paterson NJ;40.9158333;-74.1816667;USGS01389802
01389890;Passaic River at Dundee Dam at Clifton NJ;40.8858333;-74.1283333;USGS01389890
01390450;Saddle River at Upper Saddle River NJ;41.0586111;-74.0955556;USGS01390450
01390500;Saddle River at Ridgewood NJ;40.985;-74.0905556;USGS01390500
01391000;Hohokus Brook at Ho-Ho-Kus NJ;40.99777778;-74.1119444;USGS01391000
01391102;Saddle River below Hohokus Brook at Paramus NJ;40.95527778;-74.0997222;USGS01391102
01391500;Saddle River at Lodi NJ;40.89027778;-74.0805556;USGS01391500
01392170;Third River at Bloomfield NJ;40.8;-74.18777778;USGS01392170
01392500;Second River at Belleville NJ;40.78805556;-74.1716667;USGS01392500
01392650;Passaic River at PVSC at Newark NJ;40.71316667;-74.1230556;USGS01392650
01393450;Elizabeth River at Ursino Lake at Elizabeth NJ;40.675;-74.2219444;USGS01393450
01393890;East Branch Rahway River at Maplewood NJ;40.7347222;-74.2705556;USGS01393890
01393895;East Br Rahway Riv at Millburn Ave at Millburn NJ;40.72277778;-74.285;USGS01393895
01394000;West Branch Rahway River at Millburn NJ;40.73166667;-74.3075;USGS01394000
01394500;Rahway River near Springfield NJ;40.6875;-74.3116667;USGS01394500
01394620;Rahway River at Kenilworth NJ;40.67305556;-74.3130556;USGS01394620
01395000;Rahway River at Rahway NJ;40.61888889;-74.2833333;USGS01395000
01396000;Robinsons Branch at Rahway NJ;40.6058333;-74.2997222;USGS01396000
01396500;South Branch Raritan River near High Bridge NJ;40.67777778;-74.8791667;USGS01396500
01396582;Spruce Run at Main Street at Glen Gardner NJ;40.69138889;-74.9369444;USGS01396582
01396660;Mulhockaway Creek at Van Syckel NJ;40.6475;-74.96888889;USGS01396660
01396790;Spruce Run Reservoir at Clinton NJ;40.6436111;-74.9236111;USGS01396790
01396800;Spruce Run at Clinton NJ;40.64;-74.9155556;USGS01396800
01397000;South Branch Raritan River at Stanton NJ;40.5722222;-74.8680556;USGS01397000
01397420;SB Raritan R at Black Point Rd at Neshanic Sta NJ;40.50194444;-74.7425;USGS01397420
01398000;Neshanic River at Reaville NJ;40.4733333;-74.82777778;USGS01398000
01398102;South Branch Raritan River at South Branch NJ;40.54694444;-74.69638889;USGS01398102
01398500;North Branch Raritan River near Far Hills NJ;40.7083333;-74.6361111;USGS01398500
01399100;Middle Brook at Burnt Mills NJ;40.64944444;-74.6816667;USGS01399100
01399500;Lamington (Black) River near Pottersville NJ;40.7275;-74.73027778;USGS01399500
01399670;South B Rockaway Creek at Whitehouse Station NJ;40.61944444;-74.7736111;USGS01399670
01399780;Lamington River at Burnt Mills NJ;40.6347222;-74.6866667;USGS01399780
01399830;North Branch Raritan River at North Branch NJ;40.6;-74.67388889;USGS01399830
01400000;North Branch Raritan River near Raritan NJ;40.57055556;-74.6791667;USGS01400000
01400010;North Branch Raritan River at South Branch NJ;40.55666667;-74.6875;USGS01400010
01400360;Peters Brook at Mercer St at Somerville NJ;40.575;-74.6158333;USGS01400360
01400500;Raritan River at Manville NJ;40.55555556;-74.58277778;USGS01400500
01401000;Stony Brook at Princeton NJ;40.33305556;-74.6819444;USGS01401000
01401650;Pike Run at Belle Mead NJ;40.46805556;-74.64888889;USGS01401650
01401750;Millstone River at Griggstown NJ;40.44;-74.6175;USGS01401750
01402000;Millstone River at Blackwells Mills NJ;40.475;-74.5758333;USGS01402000
01402500;Millstone River at Millstone NJ;40.50277778;-74.5875;USGS01402500
01402540;Millstone River at Weston NJ;40.5297222;-74.5883333;USGS01402540
01402630;Royce Brook at Hamilton Road near Manville NJ;40.5061111;-74.6230556;USGS01402630
01403060;Raritan River below Calco Dam at Bound Brook NJ;40.5511111;-74.5483333;USGS01403060
01403150;West Branch Middle Brook near Martinsville NJ;40.6122222;-74.5908333;USGS01403150
01403200;Middle Brook at Bound Brook NJ;40.5608333;-74.54888889;USGS01403200
01403400;Green Brook at Seeley Mills NJ;40.6661111;-74.40388889;USGS01403400
01403540;Stony Brook at Watchung NJ;40.63638889;-74.45138889;USGS01403540
01403570;Stony Brook at North Plainfield NJ;40.62194444;-74.4361111;USGS01403570
01403600;Green Brook at Rock Avenue at Plainfield NJ;40.60194444;-74.4575;USGS01403600
01403900;Bound Brook at Middlesex NJ;40.585;-74.50777778;USGS01403900
01405030;Lawrence Brook at Westons Mills NJ;40.48305556;-74.41277778;USGS01405030
01405400;Manalapan Brook at Spotswood NJ;40.38944444;-74.3905556;USGS01405400
01406050;Deep Run at Old Bridge NJ;40.415;-74.34888889;USGS01406050
01406710;Raritan River at South Amboy NJ;40.4922222;-74.28138889;USGS01406710
01407081;Raritan Bay at Keansburg NJ;40.44916667;-74.1475;USGS01407081
01407290;Big Brook near Marlboro NJ;40.3197222;-74.2141667;USGS01407290
01407498;Swimming River Reservoir near Red Bank NJ;40.31916667;-74.115;USGS01407498
01407500;Swimming River near Red Bank NJ;40.3197222;-74.1155556;USGS01407500
01407600;Shrewsbury River at Sea Bright NJ;40.36555556;-73.9747222;USGS01407600
01407705;Shark River near Neptune City NJ;40.1986111;-74.07;USGS01407705
01407760;Jumping Brook near Neptune City NJ;40.2033333;-74.0658333;USGS01407760
01407770;Shark River at Belmar NJ;40.1811111;-74.03027778;USGS01407770
01408000;Manasquan River at Squankum NJ;40.16138889;-74.1547222;USGS01408000
01408029;Manasquan River near Allenwood NJ;40.14666667;-74.1222222;USGS01408029
01408048;Watson Cr at Glimmer Glass Bridge at Manasquan NJ;40.11166667;-74.0447222;USGS01408048
01408120;North Branch Metedeconk River near Lakewood NJ;40.09166667;-74.1525;USGS01408120
01408168;Barnegat Bay at Mantoloking NJ;40.04;-74.0522222;USGS01408168
01408205;Barnegat Bay at Rt 37 bridge near Bay Shore NJ;39.9461111;-74.1025;USGS01408205
01408500;Toms River near Toms River NJ;39.98638889;-74.2233333;USGS01408500
01408900;Cedar Creek at Western Blvd near Lanoka Harbor NJ;39.87916667;-74.1905556;USGS01408900
01409110;Barnegat Bay at Waretown NJ;39.7911111;-74.1819444;USGS01409110
01409125;Barnegat Bay at Barnegat Light NJ;39.7611111;-74.1080556;USGS01409125
01409146;East Thorofare at Ship Bottom NJ;39.65388889;-74.1858333;USGS01409146
01409147;Barnegat Inlet at Barnegat Light NJ;39.7636111;-74.1041667;USGS01409147
01409280;Westecunk Creek at Stafford Forge NJ;39.66666667;-74.32027778;USGS01409280
01409335;Little Egg Inlet near Tuckerton NJ;39.50888889;-74.3247222;USGS01409335
01409400;Mullica River near Batsto NJ;39.67444444;-74.665;USGS01409400
01409810;West Branch Wading River near Jenkins NJ;39.68805556;-74.5480556;USGS01409810
01410000;Oswego River at Harrisville NJ;39.6633333;-74.5236111;USGS01410000
01410150;East Branch Bass River near New Gretna NJ;39.62305556;-74.44138889;USGS01410150
01410500;Absecon Creek at Absecon NJ;39.43027778;-74.5205556;USGS01410500
01410510;Absecon Creek at US Route 30 at Absecon NJ;39.42305556;-74.5;USGS01410510
01410560;Inside Thorofare at US Rt 40 at Atlantic City NJ;39.3533333;-74.4566667;USGS01410560
01410600;Absecon Channel at Atlantic City NJ;39.3775;-74.4233333;USGS01410600
01410784;Great Egg Harbor R near Sicklerville NJ;39.7336111;-74.9511111;USGS01410784
01410820;Great Egg Harbor River near Blue Anchor NJ;39.66916667;-74.9133333;USGS01410820
01411000;Great Egg Harbor River at Folsom NJ;39.5947222;-74.8516667;USGS01411000
01411300;Tuckahoe River at Head of River NJ;39.30694444;-74.8205556;USGS01411300
01411320;Great Egg Harbor Bay at Ocean City NJ;39.28416667;-74.57777778;USGS01411320
01411330;Beach Thorofare at Margate City NJ;39.3375;-74.5130556;USGS01411330
01411350;Ludlam Thorofare at Sea Isle City NJ;39.1575;-74.69777778;USGS01411350
01411355;Ingram Thorofare at Avalon NJ;39.1108333;-74.73388889;USGS01411355
01411360;Great Channel at Stone Harbor NJ;39.05666667;-74.7641667;USGS01411360
01411390;Cape May Harbor at Cape May NJ;38.9486111;-74.8905556;USGS01411390
01411435;Sluice Creek near South Dennis NJ;39.16166667;-74.8319444;USGS01411435
01411456;Little Ease Run near Clayton NJ;39.65888889;-75.0675;USGS01411456
01411500;Maurice River at Norma NJ;39.49555556;-75.0769444;USGS01411500
01412150;Maurice River at Bivalve NJ;39.23166667;-75.0330556;USGS01412150
01412800;Cohansey River at Seeley NJ;39.4725;-75.2555556;USGS01412800
01413038;Cohansey River at Greenwich NJ;39.3836111;-75.35027778;USGS01413038
01413088;EAST BRANCH DELAWARE RIVER AT ROXBURY NY;42.29166667;-74.5597222;USGS01413088
01413398;BUSH KILL NEAR ARKVILLE NY;42.1508333;-74.60138889;USGS01413398
01413408;DRY BROOK AT ARKVILLE;42.14666667;-74.6233333;USGS01413408
01413500;EAST BRANCH DELAWARE RIVER AT MARGARETVILLE NY;42.1447222;-74.6536111;USGS01413500
01414000;PLATTE KILL AT DUNRAVEN NY;42.13305556;-74.6955556;USGS01414000
01414500;MILL BROOK NEAR DUNRAVEN NY;42.1061111;-74.7305556;USGS01414500
01415000;TREMPER KILL NEAR ANDES NY;42.12;-74.8186111;USGS01415000
01417000;EAST BRANCH DELAWARE RIVER AT DOWNSVILLE NY;42.075;-74.97638889;USGS01417000
01417500;EAST BRANCH DELAWARE RIVER AT HARVARD NY;42.0245833;-75.11927778;USGS01417500
01420500;BEAVER KILL AT COOKS FALLS NY;41.94638889;-74.9797222;USGS01420500
01421000;EAST BRANCH DELAWARE RIVER AT FISHS EDDY NY;41.97305556;-75.1741667;USGS01421000
01421610;WEST BRANCH DELAWARE RIVER AT HOBART NY;42.37138889;-74.66888889;USGS01421610
01421618;TOWN BROOK SOUTHEAST OF HOBART NY;42.3611111;-74.6622222;USGS01421618
01421900;WEST BRANCH DELAWARE RIVER UPSTREAM FROM DELHI NY;42.28027778;-74.9072222;USGS01421900
01422500;LITTLE DELAWARE RIVER NEAR DELHI NY;42.2522222;-74.9016667;USGS01422500
01423000;WEST BRANCH DELAWARE RIVER AT WALTON NY;42.1661111;-75.14;USGS01423000
0142400103;TROUT CREEK NEAR TROUT CREEK NY;42.1736111;-75.2794444;USGS0142400103
01425000;WEST BRANCH DELAWARE RIVER AT STILESVILLE NY;42.0747222;-75.3961111;USGS01425000
01426500;WEST BRANCH DELAWARE RIVER AT HALE EDDY NY;42.00305556;-75.3836111;USGS01426500
01427000;WEST BRANCH DELAWARE RIVER AT HANCOCK NY;41.9522222;-75.2916667;USGS01427000
01427207;DELAWARE RIVER AT LORDVILLE NY;41.8672222;-75.21388889;USGS01427207
01427500;CALLICOON CREEK AT CALLICOON NY;41.7608333;-75.0483333;USGS01427500
01427510;DELAWARE RIVER AT CALLICOON NY;41.75666667;-75.0575;USGS01427510
01428500;DELAWARE R ABOVE LACKAWAXEN R NEAR BARRYVILLE NY;41.50888889;-74.9858333;USGS01428500
01428750;West Branch Lackawaxen River near Aldenville, PA;41.67452998;-75.37601299;USGS01428750
01428900;Prompton Reservoir at Prompton, PA;41.58842009;-75.3271227;USGS01428900
01429000;West Branch Lackawaxen River at Prompton, PA;41.58730898;-75.3268449;USGS01429000
01429400;General Edgar Jadwin Reservoir near Honesdale, PA;41.61231049;-75.2648981;USGS01429400
01429500;Dyberry Creek near Honesdale, PA;41.6073104;-75.26712048;USGS01429500
01430000;Lackawaxen River near Honesdale, PA;41.56203315;-75.2479534;USGS01430000
01431500;Lackawaxen River at Hawley, PA;41.4762002;-75.1721186;USGS01431500
01432110;Lackawaxen River at Rowland, PA;41.4759228;-75.036281;USGS01432110
01432160;DELAWARE RIVER AT BARRYVILLE NY;41.47536824;-74.91238898;USGS01432160
01432805;DELAWARE RIVER AT POND EDDY NY;41.4389808;-74.8193318;USGS01432805
01432900;MONGAUP RIVER AT MONGAUP VALLEY NY;41.66805556;-74.7805556;USGS01432900
01433500;MONGAUP RIVER NEAR MONGAUP NY;41.46138889;-74.75888889;USGS01433500
01434000;DELAWARE RIVER AT PORT JERVIS NY;41.37055556;-74.6975;USGS01434000
01434017;EAST BRANCH NEVERSINK RIVER NEAR CLARYVILLE NY;41.92527778;-74.54027778;USGS01434017
01434025;BISCUIT BK ABOVE PIGEON BK AT FROST VALLEY NY;41.9960833;-74.5002222;USGS01434025
01434498;WEST BRANCH NEVERSINK RIVER AT CLARYVILLE NY;41.92027778;-74.5747222;USGS01434498
01435000;NEVERSINK RIVER NEAR CLARYVILLE NY;41.89;-74.59;USGS01435000
01436000;NEVERSINK RIVER AT NEVERSINK NY;41.82;-74.6355556;USGS01436000
01436690;NEVERSINK RIVER AT BRIDGEVILLE NY;41.63805556;-74.61688889;USGS01436690
01437500;NEVERSINK RIVER AT GODEFFROY NY;41.4411111;-74.6019444;USGS01437500
01438500;Delaware River at Montague NJ;41.30916667;-74.79527778;USGS01438500
01439500;Bush Kill at Shoemakers, PA;41.08815078;-75.03767469;USGS01439500
01439590;Little Bush Kill at Edgemere, PA;41.2587041;-74.9954499;USGS01439590
01440000;Flat Brook near Flatbrookville NJ;41.1061111;-74.9525;USGS01440000
01440200;Delaware River near Delaware Water Gap Pa;41.0133333;-75.0861111;USGS01440200
01440400;Brodhead Creek near Analomink, PA;41.0848148;-75.2146251;USGS01440400
01440485;Swiftwater Creek at Swiftwater, PA;41.09397946;-75.32212759;USGS01440485
01441495;Pocono Creek ab Wigwam Run near Stroudsburg, PA;40.9909265;-75.2551824;USGS01441495
01442500;Brodhead Creek at Minisink Hills, PA;40.998706;-75.1426788;USGS01442500
01443280;East Branch Paulins Kill near Lafayette NJ;41.07638889;-74.69527778;USGS01443280
01443500;Paulins Kill at Blairstown NJ;40.9808333;-74.9533333;USGS01443500
01443900;Yards Creek near Blairstown NJ;40.98055556;-75.0391667;USGS01443900
01445000;Pequest River at Huntsville NJ;40.9808333;-74.77638889;USGS01445000
01445500;Pequest River at Pequest NJ;40.83055556;-74.97777778;USGS01445500
01446000;Beaver Brook near Belvidere NJ;40.8433333;-75.04638889;USGS01446000
01446500;Delaware River at Belvidere NJ;40.82638889;-75.0825;USGS01446500
01446775;Bushkill Creek ab Rt 33 bridge at Tatamy, PA;40.7489862;-75.2651783;USGS01446775
01446776;Bushkill Creek bl SR2017 bridge at Tatamy, PA;40.74870845;-75.2610116;USGS01446776
01446995;Delaware River at US Route 22 at Phillipsburg NJ;40.69444444;-75.2033333;USGS01446995
01447500;Lehigh River at Stoddartsville, PA;41.1303626;-75.625467;USGS01447500
01447680;Tunkhannock Creek near Long Pond, PA;41.06527778;-75.52138889;USGS01447680
01447720;Tobyhanna Creek near Blakeslee, PA;41.0848082;-75.6054666;USGS01447720
01447780;Francis E. Walter Reservoir near White Haven, PA;41.112584;-75.7204693;USGS01447780
01447800;Lehigh R bl Francis E Walter Res nr White Haven PA;41.1048062;-75.7321362;USGS01447800
01449000;Lehigh River at Lehighton, PA;40.8292587;-75.70518938;USGS01449000
01449360;Pohopoco Creek at Kresgeville, PA;40.8975919;-75.5024077;USGS01449360
01449790;Beltzville Lake near Parryville, PA;40.84898086;-75.6382436;USGS01449790
01449800;Pohopoco Cr bl Beltzville Dam nr Parryville, PA;40.84564756;-75.6457437;USGS01449800
01450500;Aquashicola Creek at Palmerton, PA;40.8062047;-75.5979643;USGS01450500
01451000;Lehigh River at Walnutport, PA;40.7570395;-75.60296388;USGS01451000
01451500;Little Lehigh Creek near Allentown, PA;40.5823197;-75.48296088;USGS01451500
01451650;Little Lehigh Creek at Tenth St. Br. at Allentown;40.59648637;-75.4740717;USGS01451650
01451800;Jordan Creek near Schnecksville, PA;40.66176219;-75.626854;USGS01451800
01452000;Jordan Creek at Allentown, PA;40.62315267;-75.4824053;USGS01452000
01452500;Monocacy Creek at Bethlehem, PA;40.6412091;-75.37934709;USGS01452500
01453000;Lehigh River at Bethlehem, PA;40.6153761;-75.3787914;USGS01453000
01454700;Lehigh River at Glendon, PA;40.6692656;-75.23628808;USGS01454700
01455400;Lake Hopatcong at Landing NJ;40.9175;-74.6641667;USGS01455400
01455500;Musconetcong River at outlet of Lake Hopatcong NJ;40.9172222;-74.6655556;USGS01455500
01457000;Musconetcong River near Bloomsbury NJ;40.6722222;-75.0608333;USGS01457000
01457500;Delaware River at Riegelsville NJ;40.5947222;-75.1897222;USGS01457500
01458500;Delaware River at Frenchtown NJ;40.5261111;-75.065;USGS01458500
01459500;Tohickon Creek near Pipersville, PA;40.4337151;-75.1165609;USGS01459500
01460440;Delaware and Raritan Canal at Port Mercer NJ;40.30444444;-74.685;USGS01460440
01460595;Del & Rar Canal at Landing La at New Brunswick NJ;40.50777778;-74.4641667;USGS01460595
01460880;Lockatong Creek at Raven Rock NJ;40.4161111;-75.01777778;USGS01460880
01461500;Delaware River at Stockton NJ;40.40277778;-74.9794444;USGS01461500
01462000;Delaware River at Lambertville NJ;40.3647222;-74.94888889;USGS01462000
01462500;Delaware River at Washington Crossing NJ;40.295;-74.8680556;USGS01462500
01463500;Delaware River at Trenton NJ;40.22166667;-74.7780556;USGS01463500
01463620;Assunpink Creek near Clarksville NJ;40.2697222;-74.6719444;USGS01463620
01463740;Shabakunk C at Sylva Lake Dam at Ewingville NJ;40.2711111;-74.7733333;USGS01463740
01463882;Assunpink Creek below STP near Mercerville NJ;40.2475;-74.72777778;USGS01463882
01464000;Assunpink Creek at Trenton NJ;40.22416667;-74.7491667;USGS01464000
01464500;Crosswicks Creek at Extonville NJ;40.1372222;-74.6;USGS01464500
01464645;NB Neshaminy Cr bl Lake Galena nr New Britain, PA;40.31232805;-75.2065626;USGS01464645
01464720;NB Neshaminy Creek at Chalfont, PA;40.28816188;-75.20378458;USGS01464720
01464750;Neshaminy Creek near Rushland, PA;40.26038549;-75.0348915;USGS01464750
01464907;Little Neshaminy C at Valley Road nr Neshaminy PA;40.22927456;-75.119616;USGS01464907
01465200;Neshaminy Creek near Penns Park, PA;40.25184167;-75.0087083;USGS01465200
01465500;Neshaminy Creek near Langhorne, PA;40.1739982;-74.9568342;USGS01465500
01465798;Poquessing Creek at Grant Ave. at Philadelphia, PA;40.05705567;-74.9851694;USGS01465798
01465850;South Branch Rancocas Creek at Vincentown NJ;39.94;-74.7630556;USGS01465850
01465880;Southwest Branch Rancocas Creek at Medford NJ;39.89527778;-74.8236111;USGS01465880
01466500;McDonalds Branch in Byrne State Forest NJ;39.885;-74.50527778;USGS01466500
01466900;Greenwood Branch at New Lisbon NJ;39.9561111;-74.62777778;USGS01466900
01467000;North Branch Rancocas Creek at Pemberton NJ;39.97;-74.6844444;USGS01467000
01467005;NB Rancocas C at Iron Works Park at Mount Holly NJ;39.99305556;-74.78138889;USGS01467005
014670261;Delaware River nr Pennypack Woods, PA;40.0385;-74.9936111;USGS014670261
01467031;Pennypack Creek at Horsham, PA;40.1772222;-75.1219444;USGS01467031
01467036;Pennypack Creek trib at Hatboro, PA;40.1809422;-75.11211669;USGS01467036
01467039;Pennypack Creek near Willow Grove, PA;40.15138889;-75.0758333;USGS01467039
014670413;Pennypack Creek at Bethayres, PA;40.11277778;-75.0730556;USGS014670413
01467042;Pennypack Creek at Pine Road, at Philadelphia, PA;40.08983289;-75.0690611;USGS01467042
01467048;Pennypack Cr at Lower Rhawn St Bdg, Phila., PA;40.05011137;-75.0326713;USGS01467048
01467081;South Branch Pennsauken Creek at Cherry Hill NJ;39.94166667;-75.0011111;USGS01467081
01467086;Tacony Creek ab Adams Avenue, Philadelphia, PA;40.04650038;-75.11073008;USGS01467086
01467087;Frankford Creek at Castor Ave, Philadelphia, PA;40.0159454;-75.0968411;USGS01467087
01467150;Cooper River at Haddonfield NJ;39.90305556;-75.02138889;USGS01467150
01467200;Delaware R at Ben Franklin Bridge at Philadelphia;39.95400165;-75.1373987;USGS01467200
01467688;WB Schuylkill River ab Pine Knot Disch at Duncott;40.70422839;-76.2493078;USGS01467688
01467691;Oak Hill Disch 200 m bl Borehole at Duncott;40.7021228;-76.251244;USGS01467691
01467752;WB Schuylkill River ab West Cr near Pottsville, PA;40.6686861;-76.2364222;USGS01467752
01467861;West Cr West Branch Schuylkill near Pottsville, PA;40.6687722;-76.2379444;USGS01467861
01468500;Schuylkill River at Landingville, PA;40.6292577;-76.1246622;USGS01468500
01469500;Little Schuylkill River at Tamaqua, PA;40.80703327;-75.97187089;USGS01469500
01470500;Schuylkill River at Berne, PA;40.5225932;-75.99826819;USGS01470500
01470755;Maiden Creek near Virginville, PA;40.52537159;-75.8749251;USGS01470755
01470779;Tulpehocken Creek near Bernville, PA;40.4134258;-76.1716128;USGS01470779
01470870;Blue Marsh Lake near Bernville, PA;40.37925936;-76.0327163;USGS01470870
01470960;Tulpehocken Cr at Blue Marsh Damsite near Reading;40.3706482;-76.0252159;USGS01470960
01471000;Tulpehocken Creek near Reading, PA;40.36898166;-75.9791015;USGS01471000
01471510;Schuylkill River at Reading, PA;40.3348149;-75.93632;USGS01471510
01471875;Manatawny Creek near Spangsville, PA;40.339538;-75.7421359;USGS01471875
01472000;Schuylkill River at Pottstown, PA;40.2417631;-75.6515752;USGS01472000
01472104;Schuylkill River at Vincent Dam at Linfield, PA;40.20621166;-75.5654631;USGS01472104
01472157;French Creek near Phoenixville, PA;40.15149064;-75.601305;USGS01472157
01472198;Perkiomen Creek at East Greenville, PA;40.39398789;-75.51545918;USGS01472198
01472199;West Branch Perkiomen Creek at Hillegass, PA;40.3739879;-75.5224034;USGS01472199
01472620;East Branch Perkiomen Creek near Dublin, PA;40.40399276;-75.2343416;USGS01472620
01472810;East Branch Perkiomen Creek near Schwenksville, PA;40.2587137;-75.4287873;USGS01472810
01473000;Perkiomen Creek at Graterford, PA;40.22954725;-75.451567;USGS01473000
01473169;Valley Creek at PA Turnpike Br near Valley Forge;40.07927367;-75.46074808;USGS01473169
014731969;E Un Trib Trout Ck US confluence nr Valley Forge;40.08952778;-75.4222222;USGS014731969
014731995;Trout Ck btwn Gulph & Richards Rds nr Valley Forge;40.09125;-75.4219722;USGS014731995
01473205;Trout Ck US Rt 23 near Valley Forge,PA;40.09743056;-75.4192;USGS01473205
01473500;Schuylkill River at Norristown, PA;40.11121934;-75.3468502;USGS01473500
01473900;Wissahickon Creek at Fort Washington, PA;40.1239987;-75.2198992;USGS01473900
01474000;Wissahickon Creek at Mouth, Philadelphia, PA;40.01539;-75.2068459;USGS01474000
01474500;Schuylkill River at Philadelphia, PA;39.9678905;-75.1885123;USGS01474500
01474703;Delaware River at Fort Mifflin at Philadelphia, PA;39.8792798;-75.20268029;USGS01474703
01475001;Mantua Creek at East Holly Avenue at Pitman NJ;39.73888889;-75.1144444;USGS01475001
01475530;Cobbs Cr at U.S. Hghwy No. 1 at Philadelphia, PA;39.97483455;-75.2799067;USGS01475530
014755456;Naylor Creek at Upper Darby, PA;39.96586667;-75.2964972;USGS014755456
01475548;Cobbs Creek at Mt. Moriah Cemetery, Philadelphia;39.9327861;-75.2376361;USGS01475548
01475850;Crum Creek near Newtown Square, PA;39.97649897;-75.4365864;USGS01475850
01476480;Ridley Creek at Media, PA;39.9162225;-75.4032496;USGS01476480
01477000;Chester Creek near Chester, PA;39.8690009;-75.4082494;USGS01477000
01477050;Delaware River at Chester, PA;39.83677934;-75.36630199;USGS01477050
01477120;Raccoon Creek near Swedesboro NJ;39.74055556;-75.2591667;USGS01477120
01477800;SHELLPOT CREEK AT WILMINGTON, DE;39.7609722;-75.5186944;USGS01477800
01478000;CHRISTINA RIVER AT COOCHS BRIDGE, DE;39.63738889;-75.72788889;USGS01478000
01478120;East Branch White Clay Creek at Avondale, PA;39.8284429;-75.780773;USGS01478120
01478245;White Clay Creek near Strickersville, PA;39.7475;-75.7708333;USGS01478245
01478650;WHITE CLAY CREEK AT NEWARK, DE;39.6892222;-75.74875;USGS01478650
01479000;WHITE CLAY CREEK NEAR NEWARK, DE;39.6992222;-75.67502778;USGS01479000
01479820;Red Clay Creek near Kennett Square, PA;39.81677739;-75.6916008;USGS01479820
01480000;RED CLAY CREEK AT WOODDALE, DE;39.76280556;-75.6365;USGS01480000
01480015;RED CLAY CREEK NEAR STANTON, DE;39.71575;-75.6399444;USGS01480015
01480017;RED CLAY CREEK TRIBUTARY AT MARSHALLTON, DE;39.72741667;-75.6518611;USGS01480017
01480065;CHRISTINA RIVER AT NEWPORT, DE;39.71063889;-75.6087222;USGS01480065
01480120;CHRISTINA RIVER AT WILMINGTON, DE;39.7362245;-75.540172;USGS01480120
01480300;West Branch Brandywine Creek near Honey Brook, PA;40.07287916;-75.8607744;USGS01480300
01480399;Chambers Lake near Wagontown, PA;40.02788158;-75.8505006;USGS01480399
01480400;Birch Run near Wagontown, PA;40.0273261;-75.8449449;USGS01480400
01480500;West Branch Brandywine Creek at Coatesville, PA;39.98566144;-75.8274467;USGS01480500
01480617;West Branch Brandywine Creek at Modena, PA;39.9617734;-75.8013341;USGS01480617
01480638;Broad Run at Northbrook, PA;39.9303864;-75.6846599;USGS01480638
01480675;Marsh Creek near Glenmoore, PA;40.09787927;-75.74159878;USGS01480675
01480685;Marsh Creek near Downingtown, PA;40.05538195;-75.71632459;USGS01480685
01480700;East Branch Brandywine Creek near Downingtown, PA;40.03482757;-75.7085488;USGS01480700
01480870;East Branch Brandywine Creek below Downingtown, PA;39.9687191;-75.6732715;USGS01480870
01481000;Brandywine Creek at Chadds Ford, PA;39.8698328;-75.5932623;USGS01481000
01481500;BRANDYWINE CREEK AT WILMINGTON, DE;39.7695;-75.5766944;USGS01481500
01482170;DELAWARE RIVER AT NEW CASTLE, DE;39.65680556;-75.562;USGS01482170
01482500;Salem River at Woodstown NJ;39.64388889;-75.33027778;USGS01482500
01482800;Delaware River at Reedy Island Jetty, DE;39.5009454;-75.5682589;USGS01482800
01483155;SILVER LAKE TRIBUTARY AT MIDDLETOWN, DE;39.4309722;-75.7094722;USGS01483155
01483177;APPOQUINIMINK RIVER NEAR ODESSA, DE;39.46594444;-75.61352778;USGS01483177
01483200;BLACKBIRD CREEK AT BLACKBIRD, DE;39.36627778;-75.66938889;USGS01483200
01483510;GARRISONS LAKE NEAR CHESWOLD, DE;39.24430556;-75.58838889;USGS01483510
01483700;ST JONES RIVER AT DOVER, DE;39.1637222;-75.5190833;USGS01483700
01484080;MURDERKILL RIVER AT FREDERICA, DE;39.0105;-75.4583056;USGS01484080
01484085;MURDERKILL RIVER AT BOWERS, DE;39.05830556;-75.3976111;USGS01484085
01484100;BEAVERDAM BRANCH AT HOUSTON, DE;38.90577778;-75.51275;USGS01484100
01484143;HAVEN LAKE OUTLET AT MILFORD, DE;38.91291667;-75.4441667;USGS01484143
01484525;MILLSBORO POND OUTLET AT MILLSBORO, DE;38.59455556;-75.29102778;USGS01484525
01484540;INDIAN RIVER AT ROSEDALE BEACH, DE;38.59152778;-75.2115833;USGS01484540
01484549;VINES CREEK NEAR DAGSBORO, DE;38.55638889;-75.2031667;USGS01484549
01484670;REHOBOTH BAY AT DEWEY BEACH, DE;38.6942222;-75.0842222;USGS01484670
01484680;MASSEY DITCH AT MASSEY LANDING, DE;38.62538999;-75.0996265;USGS01484680
01484683;INDIAN RIVER BAY INLET NEAR BETHANY BEACH, DE;38.6098333;-75.068;USGS01484683
01484690;UNNAMED DTCH ON FRED HUDSON RD AT BETHANY BCH, DE;38.55544444;-75.0634444;USGS01484690
01484695;BEAVERDAM DITCH NEAR MILLVILLE, DE;38.52144444;-75.13338889;USGS01484695
01484696;JEFFERSON CREEK AT SOUTH BETHANY, DE;38.51355556;-75.0623333;USGS01484696
01484701;LITTLE ASSAWOMAN BAY AT FENWICK ISLAND, DE;38.4549722;-75.0583333;USGS01484701
0148471320;BIRCH BRANCH AT SHOWELL, MD;38.4093333;-75.21238889;USGS0148471320
01484746;CHINCOTEAGUE BAY INLET AT CHINCOTEAGUE, VA;37.90238889;-75.40788889;USGS01484746
01484812;NASSAWADOX CREEK AB CHURCH CRK NR SILVER BEACH, VA;37.4763333;-75.9352222;USGS01484812
01485000;POCOMOKE RIVER NEAR WILLARDS, MD;38.38888889;-75.3244444;USGS01485000
01485500;NASSAWANGO CREEK NEAR SNOW HILL, MD;38.22891667;-75.4714444;USGS01485500
01486000;MANOKIN BRANCH NEAR PRINCESS ANNE, MD;38.21388889;-75.67138889;USGS01486000
01486500;BEAVERDAM CREEK NEAR SALISBURY, MD;38.3531111;-75.5725556;USGS01486500
01487000;NANTICOKE RIVER NEAR BRIDGEVILLE, DE;38.7283333;-75.5618611;USGS01487000
01487150;BUCKS BRANCH NEAR ATLANTA, DE;38.6914722;-75.63488889;USGS01487150
01487170;HEARNS POND NEAR SEAFORD, DE;38.68005556;-75.5944722;USGS01487170
01488110;NANTICOKE RIVER AT SHARPTOWN, MD;38.54400436;-75.7199316;USGS01488110
01488500;MARSHYHOPE CREEK NEAR ADAMSVILLE, DE;38.84969444;-75.6731111;USGS01488500
01490000;CHICAMACOMICO RIVER NEAR SALEM, MD;38.51166667;-75.8799167;USGS01490000
01490200;FARM CREEK NEAR TODDVILLE, MD;38.3184722;-76.0885556;USGS01490200
01491000;CHOPTANK RIVER NEAR GREENSBORO, MD;38.99719444;-75.7858056;USGS01491000
01491500;TUCKAHOE CREEK NEAR RUTHSBURG, MD;38.96680556;-75.9430556;USGS01491500
01492500;SALLIE HARRIS CREEK NEAR CARMICHAEL, MD;38.96488889;-76.1088333;USGS01492500
01493000;UNICORN BRANCH NEAR MILLINGTON, MD;39.24969444;-75.8613056;USGS01493000
01493112;CHESTERVILLE BRANCH NEAR CRUMPTON, MD;39.25705556;-75.94013889;USGS01493112
01493500;MORGAN CREEK NEAR KENNEDYVILLE, MD;39.28002778;-76.0145556;USGS01493500
01494150;THREE BRIDGES BRANCH AT CENTREVILLE, MD;39.0540833;-76.0546667;USGS01494150
01494850;East Branch Big Elk Creek at Forestville, PA;39.8223306;-75.8968883;USGS01494850
01495000;BIG ELK CREEK AT ELK MILLS, MD;39.6675833;-75.8255833;USGS01495000
01499500;EAST SIDNEY LAKE AT EAST SIDNEY NY;42.32785936;-75.2279492;USGS01499500
01500000;OULEOUT CREEK AT EAST SIDNEY NY;42.3333333;-75.235;USGS01500000
01500500;SUSQUEHANNA RIVER AT UNADILLA NY;42.32138889;-75.3166667;USGS01500500
01502500;UNADILLA RIVER AT ROCKDALE NY;42.37777778;-75.4061111;USGS01502500
01502632;SUSQUEHANNA RIVER AT BAINBRIDGE NY;42.29138889;-75.47638889;USGS01502632
01502731;SUSQUEHANNA RIVER AT WINDSOR NY;42.0747222;-75.63777778;USGS01502731
01503000;SUSQUEHANNA RIVER AT CONKLIN NY;42.03527778;-75.8030556;USGS01503000
01503500;SUSQUEHANNA RIVER AT BINGHAMTON NY;42.0925;-75.9147222;USGS01503500
01505000;CHENANGO RIVER AT SHERBURNE NY;42.6786111;-75.5105556;USGS01505000
01505810;CHENANGO RIVER AT OXFORD NY;42.44166667;-75.59638889;USGS01505810
01507000;CHENANGO RIVER AT GREENE NY;42.32444444;-75.77138889;USGS01507000
01509000;TIOUGHNIOGA RIVER AT CORTLAND NY;42.60277778;-76.1594444;USGS01509000
01509520;TIOUGHNIOGA RIVER AT LISLE NY;42.34944444;-75.9991667;USGS01509520
01510000;OTSELIC RIVER AT CINCINNATUS NY;42.5411111;-75.8997222;USGS01510000
01511000;WHITNEY POINT LAKE AT WHITNEY POINT NY;42.3428513;-75.9654778;USGS01511000
01511500;TIOUGHNIOGA RIVER AT ITASKA NY;42.29805556;-75.90888889;USGS01511500
01512500;CHENANGO RIVER NEAR CHENANGO FORKS NY;42.21805556;-75.8483333;USGS01512500
01513500;SUSQUEHANNA RIVER AT VESTAL NY;42.0908333;-76.0561111;USGS01513500
01513550;Choconut Creek near Choconut, PA;41.96277778;-76.00138889;USGS01513550
01513831;SUSQUEHANNA RIVER AT OWEGO NY;42.0972222;-76.26638889;USGS01513831
01514000;OWEGO CREEK NEAR OWEGO NY;42.12916667;-76.2705556;USGS01514000
01514850;Wappansening Creek near Windham Center, PA;41.97416667;-76.3322222;USGS01514850
01515000;SUSQUEHANNA RIVER NEAR WAVERLY NY;41.9847222;-76.5011111;USGS01515000
01516350;Tioga River near Mansfield, PA;41.7970183;-77.0802457;USGS01516350
01516500;Corey Creek near Mainesburg, PA;41.79090746;-77.0146877;USGS01516500
01517900;Tioga Lake at Tioga Dam at Tioga, PA;41.89924039;-77.1388602;USGS01517900
01518000;Tioga River at Tioga, PA;41.90840709;-77.1294154;USGS01518000
01518420;Crooked Cr bl Catlin Hollow at Middlebury Center;41.842573;-77.27330909;USGS01518420
01518498;Hammond Lake at Hammond Dam at Tioga, PA;41.89896258;-77.1474716;USGS01518498
01518700;Tioga River at Tioga Junction, PA;41.95257385;-77.1152486;USGS01518700
01518862;Cowanesque River at Westfield, PA;41.92312576;-77.5319298;USGS01518862
01519200;Cowanesque River at Elkland, PA;41.9875728;-77.3022014;USGS01519200
01519995;Cowanesque Lake at Lawrenceville, PA;41.98479599;-77.1510839;USGS01519995
01520000;Cowanesque River near Lawrenceville, PA;41.99674048;-77.1399724;USGS01520000
01520500;TIOGA RIVER AT LINDLEY NY;42.0286111;-77.1322222;USGS01520500
01521000;ARKPORT RESERVOIR NEAR ARKPORT NY;42.39590205;-77.7186048;USGS01521000
01521500;CANISTEO RIVER AT ARKPORT NY;42.3958333;-77.71138889;USGS01521500
01523000;ALMOND LAKE NEAR ALMOND NY;42.3489582;-77.70249279;USGS01523000
01523500;CANACADEA CREEK NEAR HORNELL NY;42.3347222;-77.6830556;USGS01523500
01524500;CANISTEO RIVER BELOW CANACADEA CREEK AT HORNELL NY;42.31388889;-77.6511111;USGS01524500
01525500;CANISTEO RIVER AT WEST CAMERON NY;42.2222222;-77.41777778;USGS01525500
01525981;TUSCARORA CREEK ABOVE SOUTH ADDISON NY;42.0722222;-77.29888889;USGS01525981
01526500;TIOGA RIVER NEAR ERWINS NY;42.1211111;-77.1291667;USGS01526500
01527500;COHOCTON RIVER AT AVOCA NY;42.39777778;-77.4175;USGS01527500
01528320;COHOCTON RIVER AT BATH NY;42.3433333;-77.34388889;USGS01528320
01529500;COHOCTON RIVER NEAR CAMPBELL NY;42.2525;-77.2166667;USGS01529500
01529950;CHEMUNG RIVER AT CORNING NY;42.14638889;-77.0575;USGS01529950
01530332;CHEMUNG RIVER AT ELMIRA NY;42.08638889;-76.8011111;USGS01530332
01531000;CHEMUNG RIVER AT CHEMUNG NY;42.0022222;-76.6347222;USGS01531000
01531250;NB Sugar Creek Trib near Columbia Cross Roads, PA;41.84035215;-76.8269019;USGS01531250
01531325;Sugar Creek at West Burlington, PA;41.76055556;-76.675;USGS01531325
01531500;Susquehanna River at Towanda, PA;41.76535278;-76.4407743;USGS01531500
01531908;Towanda Creek near Franklindale, PA;41.69777778;-76.5786111;USGS01531908
01532000;Towanda Creek near Monroeton, PA;41.7070195;-76.4846654;USGS01532000
01533400;Susquehanna River at Meshoppen, PA;41.60729826;-76.0502031;USGS01533400
01534000;Tunkhannock Creek near Tunkhannock, PA;41.55841008;-75.89464168;USGS01534000
01534180;Stillwater Lake near Forest City, PA;41.696194;-75.48573929;USGS01534180
01534300;Lackawanna River near Forest City, PA;41.67980547;-75.47184988;USGS01534300
01534490;Aylesworth Creek Lake at Jermyn, PA;41.522304;-75.5296295;USGS01534490
01534500;Lackawanna River at Archbald, PA;41.5045259;-75.54213;USGS01534500
01534860;Lackawanna R bl Leggetts Creek at Scranton, PA;41.44119115;-75.6421337;USGS01534860
01536000;Lackawanna River at Old Forge, PA;41.35924619;-75.744359;USGS01536000
01536500;Susquehanna River at Wilkes-Barre, PA;41.2509149;-75.8807518;USGS01536500
01538000;Wapwallopen Creek near Wapwallopen, PA;41.0592504;-76.0935397;USGS01538000
01538700;Susquehanna River at Bloomsburg, PA;40.9939757;-76.4399451;USGS01538700
01539000;Fishing Creek near Bloomsburg, PA;41.07814118;-76.4310555;USGS01539000
01539700;Little Fishing Creek near Bloomsburg, PA;41.04036426;-76.4832805;USGS01539700
01540000;Fishing Creek at Bloomsburg, PA.;41.0025869;-76.4630016;USGS01540000
01540500;Susquehanna River at Danville, PA;40.95814218;-76.6191222;USGS01540500
01541000;West Branch Susquehanna River at Bower, PA;40.89700655;-78.6769726;USGS01541000
01541180;Curwensville Lake near Curwensville, PA;40.9536696;-78.5275242;USGS01541180
01541200;WB Susquehanna River near Curwensville, PA;40.9614471;-78.5191906;USGS01541200
01541303;West Branch Susquehanna River at Hyde, PA;41.00450158;-78.4566886;USGS01541303
01541340;Glendale Lake near Flinton, PA;40.6972862;-78.5372437;USGS01541340
01541500;Clearfield Creek at Dimeling, PA;40.97172406;-78.4058533;USGS01541500
01542500;WB Susquehanna River at Karthaus, PA;41.11755906;-78.108896;USGS01542500
01542810;Waldy Run near Emporium, PA;41.57895225;-78.2925121;USGS01542810
01543000;Driftwood Br Sinnemahoning Cr at Sterling Run, PA;41.4133959;-78.1969524;USGS01543000
01543500;Sinnemahoning Creek at Sinnemahoning, PA;41.31728467;-78.1030596;USGS01543500
01543693;East Fork Sinnemahoning at Wharton Township, PA;41.54138889;-77.9802778;USGS01543693
01543700;First Fork Sinnemahoning Creek at Wharton, PA;41.5189536;-78.0275013;USGS01543700
01543900;First Fork Sinnemahoning Creek Reservoir;41.40700836;-78.0191672;USGS01543900
01544000;First Fork Sinnemahoning Cr near Sinnemahoning, PA;41.4017305;-78.0241674;USGS01544000
01544500;Kettle Creek at Cross Fork, PA;41.4758994;-77.8258251;USGS01544500
01544800;Kettle Cr Lake at Kettle Cr Dam near Westport, PA;41.3603424;-77.9238847;USGS01544800
01545000;Kettle Creek near Westport, PA;41.31950954;-77.873882;USGS01545000
01545500;West Branch Susquehanna River at Renovo, PA;41.32367797;-77.7499869;USGS01545500
01545600;Young Womans Creek near Renovo, PA;41.38951168;-77.6908191;USGS01545600
01545800;WB Susquehanna River at Lock Haven, PA;41.1381245;-77.441926;USGS01545800
01546400;Spring Creek at Houserville, PA;40.8336726;-77.82750108;USGS01546400
01546500;Spring Creek near Axemann, PA;40.88978334;-77.794168;USGS01546500
01547100;Spring Creek at Milesburg, PA;40.9317273;-77.7855575;USGS01547100
01547200;Bald Eagle Creek bl Spring Creek at Milesburg, PA;40.943116;-77.78639109;USGS01547200
01547480;Foster Joseph Sayers Lake near Blanchard, PA;41.04811998;-77.6094383;USGS01547480
01547500;Bald Eagle Creek at Blanchard, PA;41.05173127;-77.6044379;USGS01547500
01547700;Marsh Creek at Blanchard, PA;41.05950916;-77.6058264;USGS01547700
01547950;Beech Creek at Monument, PA;41.1117307;-77.7022159;USGS01547950
01548005;Bald Eagle Creek near Beech Creek Station, PA;41.0808995;-77.54943419;USGS01548005
01548303;Straight Run, Site 1, at Marsh Creek, PA;41.78479405;-77.4019232;USGS01548303
01548500;Pine Creek at Cedar Run, PA;41.52173586;-77.4474798;USGS01548500
01549500;Blockhouse Creek near English Center, PA;41.47368336;-77.230809;USGS01549500
01549700;Pine Creek bl L Pine Creek near Waterville, PA;41.273683;-77.32414028;USGS01549700
01549760;WB Susquehanna River at Jersey Shore, PA;41.2022951;-77.2510812;USGS01549760
01550000;Lycoming Creek near Trout Run, PA;41.41840957;-77.03274598;USGS01550000
01550500;Lycoming Creek near Williamsport, PA;41.2670217;-77.04663479;USGS01550500
01551500;WB Susquehanna River at Williamsport, PA;41.23618985;-76.996634;USGS01551500
01552000;Loyalsock Creek at Loyalsockville, PA;41.32507836;-76.91246379;USGS01552000
01552500;Muncy Creek near Sonestown, PA;41.35702418;-76.5346708;USGS01552500
01553005;Muncy Creek near Muncy, PA;41.20758197;-76.7521806;USGS01553005
01553025;West Branch Susquehanna River at Allenwood, PA;41.10805556;-76.89;USGS01553025
01553240;W Br Susquehanna River at West Milton, PA;41.0186959;-76.8649637;USGS01553240
01553500;West Branch Susquehanna River at Lewisburg, PA;40.96758498;-76.8763543;USGS01553500
01553700;Chillisquaque Creek at Washingtonville, PA;41.0617522;-76.68023479;USGS01553700
01553850;Chillisquaque Creek near Potts Grove, PA;40.97444444;-76.8;USGS01553850
01553990;Susquehanna River above Dam at Sunbury, PA;40.8528628;-76.8024666;USGS01553990
01554000;Susquehanna River at Sunbury, PA;40.8345293;-76.8266349;USGS01554000
01555000;Penns Creek at Penns Creek, PA;40.86674917;-77.0483088;USGS01555000
01555500;East Mahantango Creek near Dalmatia, PA;40.61119589;-76.9119198;USGS01555500
01556000;Frankstown Br Juniata River at Williamsburg, PA;40.4631283;-78.199732;USGS01556000
01557500;Bald Eagle Creek at Tyrone, PA;40.6836733;-78.23362439;USGS01557500
01558000;Little Juniata River at Spruce Creek, PA;40.61256655;-78.1405645;USGS01558000
01559000;Juniata River at Huntingdon, PA;40.4847958;-78.01889269;USGS01559000
01559790;Raystown Branch Juniata River at Wolfsburg, PA;40.04591376;-78.5289068;USGS01559790
01560000;Dunning Creek at Belden, PA;40.07174679;-78.4925172;USGS01560000
01562000;Raystown Branch Juniata River at Saxton, PA;40.21591249;-78.2652901;USGS01562000
01563100;Raystown Lake near Huntingdon, PA;40.4350748;-78.0066697;USGS01563100
01563200;Rays Br Juniata R bl Rays Dam nr Huntingdon, PA;40.42896398;-77.9911135;USGS01563200
01563500;Juniata River at Mapleton Depot, PA;40.39229876;-77.93499988;USGS01563500
01564500;Aughwick Creek near Three Springs, PA;40.21258144;-77.9252764;USGS01564500
01564512;Aughwick Creek near Shirleysburg, PA;40.2820244;-77.890553;USGS01564512
01564895;Juniata River at Lewistown, PA;40.59451734;-77.5824931;USGS01564895
01565000;Kishacoquillas Creek at Reedsville, PA;40.65479256;-77.5830499;USGS01565000
01566000;Tuscarora Creek near Port Royal, PA;40.5153564;-77.41915568;USGS01566000
01567000;Juniata River at Newport, PA;40.47841677;-77.1291484;USGS01567000
01567500;Bixler Run near Loysville, PA;40.37091615;-77.402209;USGS01567500
01568000;Sherman Creek at Shermans Dale, PA;40.32341928;-77.1688703;USGS01568000
01570000;Conodoguinet Creek near Hogestown, PA;40.2522222;-77.0211111;USGS01570000
01570500;Susquehanna River at Harrisburg, PA;40.25481164;-76.8860846;USGS01570500
01571005;Paxton Creek near Glenwood, PA;40.3061111;-76.8555556;USGS01571005
01571184;Mountain Creek near Pine Grove Furnace, PA;40.0309245;-77.3085949;USGS01571184
01571500;Yellow Breeches Creek near Camp Hill, PA;40.22481237;-76.8980293;USGS01571500
01572025;Swatara Creek near Pine Grove, PA;40.53258999;-76.4021793;USGS01572025
01572190;Swatara Creek near Inwood, PA;40.4792558;-76.530797;USGS01572190
01573000;Swatara Creek at Harper Tavern, PA;40.4025897;-76.57718829;USGS01573000
01573160;Quittapahilla Creek near Bellegrove, PA;40.3426111;-76.56188889;USGS01573160
01573560;Swatara Creek near Hershey, PA;40.29842358;-76.6677469;USGS01573560
01573600;Swatara Creek at Middletown, PA;40.1925531;-76.7279083;USGS01573600
01573695;Conewago Creek near Bellaire, PA;40.19527778;-76.56777778;USGS01573695
01573710;Conewago Creek near Falmouth, PA;40.1511111;-76.6894444;USGS01573710
01573825;West Conewago Creek at East Berlin, PA;39.9412222;-76.99;USGS01573825
01573849;Bermudian Creek at Oxford Road nr Heidlersburg, PA;39.9802222;-77.1546111;USGS01573849
01574000;West Conewago Creek near Manchester, PA;40.08231745;-76.7199675;USGS01574000
01574500;Codorus Creek at Spring Grove, PA;39.8787104;-76.8533073;USGS01574500
01574700;Indian Rock Dam near York, PA;39.92287694;-76.75357978;USGS01574700
01575500;Codorus Creek near York, PA;39.94620975;-76.7552459;USGS01575500
01575585;Codorus Creek at Pleasureville, PA;40.0187082;-76.6930218;USGS01575585
01576000;Susquehanna River at Marietta, PA;40.0545413;-76.5307992;USGS01576000
01576500;Conestoga River at Lancaster, PA;40.05009748;-76.2771798;USGS01576500
01576516;Big Spring Run ab Trib near Willow Street, PA;39.99154444;-76.2609306;USGS01576516
015765185;Unnamed Trib to Big Spring Run nr Willow Street PA;39.99119167;-76.26395278;USGS015765185
015765195;Big Spring Run near Mylin Corners, PA;39.9959361;-76.26403889;USGS015765195
01576754;Conestoga River at Conestoga, PA;39.9464886;-76.3677388;USGS01576754
01576767;Pequea Creek near Ronks, PA;40.00916667;-76.1622222;USGS01576767
01576787;Pequea Creek at Martic Forge, PA;39.90593409;-76.32829298;USGS01576787
01576980;Susquehanna River at Holtwood Dam at Holtwood, PA;39.82788027;-76.33329279;USGS01576980
01577500;Muddy Creek at Castle Fin, PA;39.77260378;-76.3157919;USGS01577500
01578310;SUSQUEHANNA RIVER AT CONOWINGO, MD;39.6579133;-76.1741754;USGS01578310
01578475;Octoraro Creek near Richardsmere, MD;39.7067746;-76.1152286;USGS01578475
01579550;SUSQUEHANNA RIVER NEAR DARLINGTON, MD;39.62605556;-76.15775;USGS01579550
01580000;DEER CREEK AT ROCKS, MD;39.6299722;-76.4033056;USGS01580000
01580520;DEER CREEK NEAR DARLINGTON, MD;39.61744444;-76.1918611;USGS01580520
01580620;CHES BAY AT MOUTH OF SUS R AT HAVRE DE GRACE, MD;39.53775;-76.0895833;USGS01580620
01580700;SWAN CREEK AT SWAN CREEK, MD;39.5226116;-76.1421745;USGS01580700
01581500;BYNUM RUN AT BEL AIR, MD;39.5414722;-76.3301111;USGS01581500
01581649;JAMES RUN NEAR BELCAMP, MD;39.49219444;-76.2591111;USGS01581649
01581700;WINTERS RUN NEAR BENSON, MD;39.51994444;-76.3729722;USGS01581700
01581752;PLUMTREE RUN NEAR BEL AIR, MD;39.49649667;-76.34745969;USGS01581752
01581753;ATKISSON RESERVOIR NEAR BEL AIR, MD;39.48552778;-76.34463889;USGS01581753
0158175320;WHEEL CREEK NEAR ABINGDON, MD;39.4817222;-76.34052778;USGS0158175320
01581757;OTTER POINT CREEK NEAR EDGEWOOD, MD;39.43927778;-76.30602778;USGS01581757
01581810;GUNPOWDER FALLS AT HOFFMANVILLE, MD;39.68980556;-76.7814722;USGS01581810
01581830;GRAVE RUN NEAR BECKLEYSVILLE, MD;39.65480556;-76.7809167;USGS01581830
01581870;GEORGES RUN NEAR BECKLEYSVILLE, MD;39.62588889;-76.77252778;USGS01581870
01581920;GUNPOWDER FALLS NEAR PARKTON, MD;39.61888889;-76.6903056;USGS01581920
01581960;BEETREE RUN AT BENTLEY SPRINGS, MD;39.6730833;-76.6751944;USGS01581960
01582000;LITTLE FALLS AT BLUE MOUNT, MD;39.6040833;-76.6204722;USGS01582000
01582500;GUNPOWDER FALLS AT GLENCOE, MD;39.54969444;-76.6361111;USGS01582500
01583100;PINEY RUN AT DOVER, MD;39.5206111;-76.76688889;USGS01583100
01583500;WESTERN RUN AT WESTERN RUN, MD;39.51077778;-76.6765;USGS01583500
01583570;POND BRANCH AT OREGON RIDGE, MD;39.48030556;-76.6875;USGS01583570
01583580;BAISMAN RUN AT BROADMOOR, MD;39.4794722;-76.67802778;USGS01583580
01583600;BEAVERDAM RUN AT COCKEYSVILLE, MD;39.4855833;-76.6457222;USGS01583600
01583800;LONG QUARTER BRANCH AT LUTHERVILLE, MD;39.42552778;-76.5965;USGS01583800
0158397967;MINEBANK RUN NEAR GLEN ARM, MD;39.41010679;-76.5560775;USGS0158397967
01584050;LONG GREEN CREEK AT GLEN ARM, MD;39.45469444;-76.47888889;USGS01584050
01584500;LITTLE GUNPOWDER FALLS AT LAUREL BROOK, MD;39.5053611;-76.43177778;USGS01584500
01585090;WHITEMARSH RUN NEAR FULLERTON, MD;39.3795833;-76.4958056;USGS01585090
01585100;WHITEMARSH RUN AT WHITE MARSH, MD;39.37052778;-76.4459167;USGS01585100
01585104;HONEYGO RUN NEAR WHITE MARSH, MD;39.383;-76.4329722;USGS01585104
01585200;WEST BRANCH HERRING RUN AT IDLEWYLDE, MD;39.37363889;-76.5843333;USGS01585200
01585219;HERRING RUN AT SINCLAIR LANE AT BALTIMORE, MD;39.318;-76.5554722;USGS01585219
01585225;MOORES RUN TRIB. NEAR TODD AVE AT BALTIMORE, MD;39.33669444;-76.5406111;USGS01585225
01585230;MOORES RUN AT RADECKE AVE AT BALTIMORE, MD;39.3300833;-76.53488889;USGS01585230
01585500;CRANBERRY BRANCH NEAR WESTMINSTER, MD;39.5933333;-76.96752778;USGS01585500
01586000;NORTH BRANCH PATAPSCO RIVER AT CEDARHURST, MD;39.50366667;-76.8848611;USGS01586000
01586210;BEAVER RUN NEAR FINKSBURG, MD;39.48944444;-76.9029444;USGS01586210
01586610;MORGAN RUN NEAR LOUISVILLE, MD;39.45188889;-76.9553056;USGS01586610
01589000;PATAPSCO RIVER AT HOLLOFIELD, MD;39.31030556;-76.7924167;USGS01589000
01589025;PATAPSCO RIVER NEAR CATONSVILLE, MD;39.25125;-76.76377778;USGS01589025
01589035;PATAPSCO RIVER NEAR ELKRIDGE, MD;39.2273333;-76.723;USGS01589035
01589100;EAST BRANCH HERBERT RUN AT ARBUTUS, MD;39.24;-76.6921944;USGS01589100
01589180;GWYNNS FALLS AT GLYNDON, MD;39.47169444;-76.81688889;USGS01589180
01589197;GWYNNS FALLS NEAR DELIGHT, MD;39.44294444;-76.7834167;USGS01589197
01589238;GWYNNS FALLS TRIBUTARY AT MCDONOGH, MD;39.40044444;-76.7704444;USGS01589238
01589290;SCOTTS LEVEL BRANCH AT ROCKDALE, MD;39.36171708;-76.761446;USGS01589290
01589300;GWYNNS FALLS AT VILLA NOVA, MD;39.34588889;-76.7331944;USGS01589300
01589305;POWDER MILL RUN NEAR LOCHEARN, MD;39.3351111;-76.7108333;USGS01589305
01589312;DEAD RUN NEAR CATONSVILLE, MD;39.29588889;-76.7440833;USGS01589312
01589315;DEAD RUN AT WOODLAWN, MD;39.31325;-76.7321111;USGS01589315
01589316;DEAD RUN TRIBUTARY NEAR WOODLAWN, MD;39.31891667;-76.7506944;USGS01589316
01589317;TRIBUTARY TO DEAD RUN TRIBUTARY AT WOODLAWN, MD;39.327;-76.74513889;USGS01589317
01589320;DEAD RUN TRIBUTARY AT WOODLAWN, MD;39.31805556;-76.73577778;USGS01589320
01589330;DEAD RUN AT FRANKLINTOWN, MD;39.3112222;-76.71663889;USGS01589330
01589352;GWYNNS FALLS AT WASHINGTON BLVD AT BALTIMORE, MD;39.2715;-76.6485556;USGS01589352
01589440;JONES FALLS AT SORRENTO, MD;39.3917222;-76.6609444;USGS01589440
01589464;STONY RUN AT RIDGEMEDE ROAD AT BALTIMORE, MD;39.3395;-76.6256944;USGS01589464
01589500;SAWMILL CREEK AT GLEN BURNIE, MD;39.17;-76.6306111;USGS01589500
01589795;SOUTH FORK JABEZ BRANCH AT MILLERSVILLE, MD;39.06825;-76.65152778;USGS01589795
01591000;PATUXENT RIVER NEAR UNITY, MD;39.23825;-77.0557222;USGS01591000
01591400;CATTAIL CREEK NEAR GLENWOOD, MD;39.2559722;-77.0510556;USGS01591400
01591610;PATUXENT RIVER BELOW BRIGHTON DAM NEAR BRIGHTON,MD;39.19219444;-77.00438889;USGS01591610
01591700;HAWLINGS RIVER NEAR SANDY SPRING, MD;39.17466667;-77.0215833;USGS01591700
01592500;PATUXENT RIV NEAR LAUREL, MD;39.1157222;-76.87375;USGS01592500
01593370;L PAX RIV TRIB ABOVE WILDE LAKE AT COLUMBIA, MD;39.22577778;-76.8700556;USGS01593370
01593450;L PAX RIV TRIB ABOVE LAKE ELKHORN NR GUILFORD, MD;39.18788889;-76.8307222;USGS01593450
01593500;LITTLE PATUXENT RIVER AT GUILFORD, MD;39.16775;-76.85125;USGS01593500
01594000;LITTLE PATUXENT RIVER AT SAVAGE, MD;39.13441667;-76.8161667;USGS01594000
01594440;PATUXENT RIVER NEAR BOWIE, MD;38.95591667;-76.6936944;USGS01594440
01594526;WESTERN BRANCH AT UPPER MARLBORO, MD;38.8142222;-76.7487222;USGS01594526
01594950;MCMILLAN F NEAR FORT PENDLETON, MD;39.27669444;-79.3903056;USGS01594950
01594963;NYDEGGER RUN NEAR GORMAN, MD;39.29752778;-79.3501667;USGS01594963
01595000;NORTH BRANCH POTOMAC RIVER AT STEYER, MD;39.30188889;-79.30688889;USGS01595000
01595300;ABRAM CREEK AT OAKMONT, WV;39.36676569;-79.17892449;USGS01595300
01595500;NORTH BRANCH POTOMAC RIVER AT KITZMILLER, MD;39.39388889;-79.1816944;USGS01595500
01595790;BLOOMINGTON LAKE NEAR ELK GARDEN, WV;39.43065106;-79.1236439;USGS01595790
01595800;NORTH BRANCH POTOMAC RIVER AT BARNUM, WV;39.4451111;-79.1108056;USGS01595800
01596050;SAVAGE RIVER NEAR AVILTON, MD;39.64319444;-79.0200278;USGS01596050
01596500;SAVAGE RIVER NEAR BARTON, MD;39.57005556;-79.1019444;USGS01596500
01597000;CRABTREE CREEK NEAR SWANTON, MD;39.50138889;-79.15875;USGS01597000
01597490;SAVAGE RIVER RESERVOIR NEAR BLOOMINGTON, MD;39.50731398;-79.1336438;USGS01597490
01597500;SAVAGE RIV BL SAVAGE RIV DAM NEAR BLOOMINGTON, MD;39.50275;-79.1239722;USGS01597500
01598500;NORTH BRANCH POTOMAC RIVER AT LUKE, MD;39.4789722;-79.0637778;USGS01598500
01598650;SAND SPRING RUN AT FROSTBURG, MD;39.6474722;-78.9362222;USGS01598650
01599000;GEORGES CREEK AT FRANKLIN, MD;39.49391667;-79.0446944;USGS01599000
01599200;LINTON CREEK NEAR LAUREL DALE, WV;39.26944444;-79.13138889;USGS01599200
01601000;Wills Creek below Hyndman, PA;39.81202897;-78.7164072;USGS01601000
01601500;WILLS CREEK NEAR CUMBERLAND, MD;39.6696111;-78.7880278;USGS01601500
01603000;NORTH BRANCH POTOMAC RIVER NEAR CUMBERLAND, MD;39.62180556;-78.7734167;USGS01603000
01604500;PATTERSON CREEK NEAR HEADSVILLE, WV;39.44314946;-78.8219649;USGS01604500
01605002;PAINTER RUN NEAR FORT ASHBY, WV;39.4856472;-78.7600181;USGS01605002
01605500;SOUTH BRANCH POTOMAC RIVER AT FRANKLIN, WV;38.63567247;-79.3378199;USGS01605500
01606000;N F SOUTH BRANCH POTOMAC RIVER AT CABINS, WV;38.9845546;-79.2336508;USGS01606000
01606500;SOUTH BRANCH POTOMAC RIVER NEAR PETERSBURG, WV;38.99122107;-79.17587059;USGS01606500
01606900;SOUTH MILL CREEK NEAR MOZER, WV;38.8548343;-79.16309189;USGS01606900
01607300;BRUSHY FORK NEAR SUGAR GROVE, WV;38.46638889;-79.31888889;USGS01607300
01607500;S F SOUTH BRANCH POTOMAC RIVER AT BRANDYWINE, WV;38.63150665;-79.2436497;USGS01607500
01608000;S F SOUTH BRANCH POTOMAC RIVER NR MOOREFIELD, WV;39.0123313;-78.9561387;USGS01608000
01608500;SOUTH BRANCH POTOMAC RIVER NEAR SPRINGFIELD, WV;39.44703879;-78.6541817;USGS01608500
01609000;TOWN CREEK NEAR OLDTOWN, MD;39.5532222;-78.555;USGS01609000
01610000;POTOMAC RIVER AT PAW PAW, WV;39.53891667;-78.45638889;USGS01610000
01610155;SIDELING HILL CREEK NEAR BELLEGROVE, MD;39.64952778;-78.34413889;USGS01610155
01610195;PARKER HOLLOW RUN AT NEEDMORE, WV;39.04277778;-78.7977778;USGS01610195
01610400;WAITES RUN NEAR WARDENSVILLE, WV;39.0427222;-78.5983333;USGS01610400
01611500;CACAPON RIVER NEAR GREAT CACAPON, WV;39.5823158;-78.3097312;USGS01611500
01613000;POTOMAC RIVER AT HANCOCK, MD;39.69755556;-78.17788889;USGS01613000
01613020;UNNAMED TRIB TO WARM SPR RUN NR BERKELEY SPR, WV;39.6058333;-78.2291667;USGS01613020
01613030;WARM SPRINGS RUN NEAR BERKELEY SPRINGS, WV;39.6405833;-78.2189444;USGS01613030
01613050;Tonoloway Creek near Needmore, PA;39.89842119;-78.132229;USGS01613050
01613095;TONOLOWAY CREEK NEAR HANCOCK, MD;39.7063611;-78.15275;USGS01613095
01613525;LICKING CREEK AT PECTONVILLE, MD;39.67627778;-78.0425278;USGS01613525
01613900;HOGUE CREEK NEAR HAYFIELD, VA;39.2145479;-78.2880592;USGS01613900
01614000;BACK CREEK NEAR JONES SPRINGS, WV;39.51204187;-78.0372224;USGS01614000
01614500;CONOCOCHEAGUE CREEK AT FAIRVIEW, MD;39.71638889;-77.8247778;USGS01614500
01615000;OPEQUON CREEK NEAR BERRYVILLE, VA;39.1747222;-78.0783333;USGS01615000
01616100;DRY MARSH RUN NEAR BERRYVILLE, VA;39.19259167;-78.0686306;USGS01616100
01616400;MILL CREEK AT BUNKER HILL, WV;39.334625;-78.0534361;USGS01616400
01616425;HOPEWELL RUN AT LEETOWN, WV;39.35463889;-77.9336111;USGS01616425
01616500;OPEQUON CREEK NEAR MARTINSBURG, WV;39.42371047;-77.9386084;USGS01616500
01617000;TUSCARORA CREEK ABOVE MARTINSBURG, WV;39.46954296;-77.9713871;USGS01617000
01617800;MARSH RUN AT GRIMES, MD;39.51455556;-77.7772222;USGS01617800
01618100;ROCKYMARSH RUN AT SCRABBLE, WV;39.4830833;-77.8318333;USGS01618100
01619000;ANTIETAM CREEK NEAR WAYNESBORO, PA;39.71625;-77.60663889;USGS01619000
01619500;ANTIETAM CREEK NEAR SHARPSBURG, MD;39.44977778;-77.7301944;USGS01619500
01620500;NORTH RIVER NEAR STOKESVILLE, VA;38.335;-79.2391667;USGS01620500
01621050;MUDDY CREEK AT MOUNT CLINTON, VA;38.48679008;-78.96030749;USGS01621050
01622000;NORTH RIVER NEAR BURKETOWN, VA;38.3404051;-78.9136385;USGS01622000
01625000;MIDDLE RIVER NEAR GROTTOES, VA;38.26179616;-78.8619703;USGS01625000
01626000;SOUTH RIVER NEAR WAYNESBORO, VA;38.0576362;-78.90807949;USGS01626000
01626850;SOUTH RIVER NEAR DOOMS, VA;38.08874648;-78.8769683;USGS01626850
01627500;SOUTH RIVER AT HARRISTON, VA;38.21874208;-78.8366915;USGS01627500
01628500;S F SHENANDOAH RIVER NEAR LYNNWOOD, VA;38.32262796;-78.7547457;USGS01628500
01629500;S F SHENANDOAH RIVER NEAR LURAY, VA;38.6462305;-78.5347329;USGS01629500
01631000;S F SHENANDOAH RIVER AT FRONT ROYAL, VA;38.91400059;-78.21083388;USGS01631000
01632000;N F SHENANDOAH RIVER AT COOTES STORE, VA;38.63706254;-78.852803;USGS01632000
01632082;LINVILLE CREEK AT BROADWAY, VA;38.60678588;-78.803357;USGS01632082
01632900;SMITH CREEK NEAR NEW MARKET, VA;38.69345016;-78.6427935;USGS01632900
01633000;N F SHENANDOAH RIVER AT MOUNT JACKSON, VA;38.74567048;-78.6389042;USGS01633000
01634000;N F SHENANDOAH RIVER NEAR STRASBURG, VA;38.9767759;-78.3361152;USGS01634000
01634500;CEDAR CREEK NEAR WINCHESTER, VA;39.0812176;-78.3294486;USGS01634500
01635500;PASSAGE CREEK NEAR BUCKTON, VA;38.95816564;-78.2666685;USGS01635500
01636316;SPOUT RUN AT RT 621 NEAR MILLWOOD, VA;39.067025;-78.0037528;USGS01636316
01636464;BULLSKIN RUN BELOW KABLETOWN, WV;39.2115833;-77.8348611;USGS01636464
01636500;SHENANDOAH RIVER AT MILLVILLE, WV;39.28204576;-77.7891606;USGS01636500
01636690;PINEY RUN NEAR LOVETTSVILLE, VA;39.3108333;-77.7185;USGS01636690
01637500;CATOCTIN CREEK NEAR MIDDLETOWN, MD;39.42725;-77.5561667;USGS01637500
01638350;S F CATOCTIN CREEK AT RT 698 NEAR WATERFORD, VA;39.1911111;-77.6154444;USGS01638350
01638420;N F CATOCTIN CREEK AT RT 681 NEAR WATERFORD, VA;39.205;-77.62388889;USGS01638420
01638480;CATOCTIN CREEK AT TAYLORSTOWN, VA;39.25510206;-77.5763778;USGS01638480
